<?xml version="1.0" encoding="UTF-8"?>
<settings>
<servers><server url="http://speedo.eltele.no/speedtest/upload.php" lat="69.9403" lon="23.3106" name="Alta" country="Norway" cc="NO" sponsor="Eltele AS" id="3433"  url2="http://speedtest.eltele.no/speedtest/upload.php" />
<server url="http://speedtest.pronea.no/speedtest/upload.php" lat="69.6828" lon="18.9428" name="Tromso" country="Norway" cc="NO" sponsor="Pronea AS" id="1327"  url2="http://62.63.63.238/speedtest/upload.php" />
<server url="http://speedtest.mmsn.ru/speedtest/upload.php" lat="68.9543" lon="33.1076" name="Murmansk" country="Russian Federation" cc="RU" sponsor="JSC M2C" id="1521"  />
<server url="http://speedtest.murmansk.u-disk.ru/speedtest/upload.php" lat="68.9543" lon="33.1076" name="Murmansk" country="Russian Federation" cc="RU" sponsor="Rostelecom" id="3522"  url2="http://speedtest2.murmansk.u-disk.ru/speedtest/upload.php" />
<server url="http://st1.teletoria.ru/speedtest/upload.php" lat="68.9543" lon="33.1076" name="Murmansk" country="Russian Federation" cc="RU" sponsor="ISP Teletoria" id="2342"  url2="http://st2.teletoria.ru/speedtest/upload.php" />
<server url="http://speedtest.oltv.ru/speedtest/upload.php" lat="68.1500" lon="33.2833" name="Olenegorsk" country="Russian Federation" cc="RU" sponsor="JSC RosTeleKom" id="1996"  url2="http://st.oltv.ru/speedtest/upload.php" />
<server url="http://speedtest.signal.no/speedtest/upload.php" lat="67.2833" lon="14.3833" name="Bodø" country="Norway" cc="NO" sponsor="Signal Broadband AS" id="3308"  url2="http://monster.signal.no/speedtest/upload.php" />
<server url="http://speedtest.migsv.ru/speedtest/upload.php" lat="66.0833" lon="76.6833" name="Novy Urengoy" country="Russian Federation" cc="RU" sponsor="TeleMig" id="2472"  url2="http://testinet.migsv.ru/speedtest/upload.php" />
<server url="http://speedtest.new-urengoy.u-disk.ru/speedtest/upload.php" lat="66.0833" lon="76.6833" name="Novy Urengoy" country="Russian Federation" cc="RU" sponsor="Rostelecom" id="3484"  url2="http://speedtest2.new-urengoy.u-disk.ru/speedtest/upload.php" />
<server url="http://track.vks-express.ru/speedtest/upload.php" lat="65.5333" lon="72.5167" name="Nadym" country="Russian Federation" cc="RU" sponsor="VKS-Internet Ltd." id="3114"  url2="http://track.vks-express.ru/2/speedtest/upload.php" />
<server url="http://st.home-nadym.ru/speedtest/upload.php" lat="65.5333" lon="72.5167" name="Nadym" country="Russian Federation" cc="RU" sponsor="interService" id="3106"  url2="http://home-nadym.ru/speedtest/speedtest/upload.php" />
<server url="http://speedtest.netplaza.fi/speedtest/upload.php" lat="65.0167" lon="25.4667" name="Oulu" country="Finland" cc="FI" sponsor="Netplaza Oy" id="2138"  url2="http://speedtest2.netplaza.fi/speedtest/upload.php" />
<server url="http://speedtest.alaska.edu/speedtest/upload.php" lat="64.8378" lon="-147.7164" name="Fairbanks, AK" country="United States" cc="US" sponsor="University of Alaska" id="3191"  url2="http://speedtest2.alaska.edu/speedtest/upload.php" />
<server url="http://speedtest.sevsk.29-region.ru/speedtest/upload.php" lat="64.5681" lon="39.8317" name="Severodvinsk" country="Russian Federation" cc="RU" sponsor="MTS" id="2146"  url2="http://speedtest1.sevsk.29-region.ru/speedtest/upload.php" />
<server url="http://speedtest.tele.gl/speedtest/upload.php" lat="64.1750" lon="-51.7389" name="Nuuk" country="Greenland" cc="GL" sponsor="Tele Greenland A/S" id="1066"  />
<server url="http://speedtest1.datacell.com/speedtest/speedtest/upload.php" lat="64.1333" lon="-21.9333" name="Reykjavík" country="Iceland" cc="IS" sponsor="DataCell ehf" id="3250"  url2="http://speedtest2.datacell.com/speedtest/speedtest/upload.php" />
<server url="http://hradi.vortex.is/speedtest/upload.aspx" lat="64.1333" lon="-21.9333" name="Reykjavik" country="Iceland" cc="IS" sponsor="Vortex Inc" id="1092"  />
<server url="http://speedtest.ppo.fi/speedtest/upload.php" lat="64.0750" lon="24.5333" name="Ylivieska" country="Finland" cc="FI" sponsor="PPO-Yhtiöt Oy" id="1726"  />
<server url="http://speedtest.nwc.is/speedtest/upload.php" lat="64.0167" lon="-22.5667" name="Keflavik" country="Iceland" cc="IS" sponsor="Network Communications" id="1038"  />
<server url="http://speedtest.iq.nwtel.ca/speedtest/upload.php" lat="63.7486" lon="-68.5197" name="Iqaluit, NU" country="Canada" cc="CA" sponsor="Northwestel" id="2543"  url2="http://216.126.103.81/speedtest/upload.php" />
<server url="http://speedtest.centrlan.net/speedtest/upload.php" lat="63.5667" lon="53.7000" name="Ukhta" country="Russian Federation" cc="RU" sponsor="Maxima - Centr.LAN" id="2130"  url2="http://195.22.104.12/speedtest/upload.php" />
<server url="http://speedtest.itsjefen.no/speedtest/upload.php" lat="63.4297" lon="10.3933" name="Trondheim" country="Norway" cc="NO" sponsor="ITsjefen AS" id="1252"  />
<server url="http://speed.global-x.ru/speedtest/upload.php" lat="63.2000" lon="75.4500" name="Noyabrsk" country="Russian Federation" cc="RU" sponsor="Sever-Svyaz" id="2017"  url2="http://speedtest.global-x.ru/speedtest/upload.php" />
<server url="http://www.nojabrsk.ru/speedtest/speedtest/upload.php" lat="63.2000" lon="75.4500" name="Noyabrsk" country="Russian Federation" cc="RU" sponsor="Rostelecom" id="2687"  url2="http://88.205.232.2/speedtest/speedtest/upload.php" />
<server url="http://speedtest.anvianet.fi/speedtest/upload.php" lat="63.1000" lon="21.6000" name="Vaasa" country="Finland" cc="FI" sponsor="Anvia Oyj" id="3113"  url2="http://speedtest2.anvianet.fi/speedtest/upload.php" />
<server url="http://speedtest2.telekarelia.fi/speedtest/upload.php" lat="62.6000" lon="29.7667" name="Joensuu" country="Finland" cc="FI" sponsor="Telekarelia Oy" id="1856"  url2="http://speedtest.telekarelia.fi/speedtest/upload.php" />
<server url="http://yk-speedtest01.ssimicro.com/speedtest/upload.php" lat="62.4422" lon="-114.3975" name="Yellowknife, NT" country="Canada" cc="CA" sponsor="SSI Micro" id="1843"  url2="http://yk-speedtest02.ssimicro.com/speedtest/upload.php" />
<server url="http://speedtest.yk.nwtel.ca/speedtest/upload.php" lat="62.4422" lon="-114.3975" name="Yellowknife, NT" country="Canada" cc="CA" sponsor="Northwestel Inc." id="2570"  url2="http://216.108.22.222/speedtest/upload.php" />
<server url="http://speedtest.seltimil.com/speedtest/upload.php" lat="62.2333" lon="25.7333" name="Jyväskylä" country="Finland" cc="FI" sponsor="Seltimil Oy" id="3038"  url2="http://speedtest.seltimil.net/speedtest/upload.php" />
<server url="http://speedtest.nyagan.net/speedtest/upload.php" lat="62.1333" lon="65.3833" name="Nyagan" country="Russian Federation" cc="RU" sponsor="Nyagan" id="1809"  url2="http://testspeed.nyagan.net/speedtest/upload.php" />
<server url="http://www.exp-net.ru/speedtest/speedtest/upload.php" lat="62.0417" lon="129.7465" name="Yakutsk" country="Russian Federation" cc="RU" sponsor="ООО Экспресс-Сеть" id="3541"  url2="http://www.exp-net.me/speedtest/speedtest/upload.php" />
<server url="http://speedtest.abunda.ru/mini/speedtest/upload.php" lat="62.0417" lon="129.7465" name="Yakutsk" country="Russian Federation" cc="RU" sponsor="ОАО &quot;Ростелеком&quot;" id="3536"  url2="http://speedtest2.abunda.ru/mini/speedtest/upload.php" />
<server url="http://www.internet.fo/speedtest/speedtest/upload.php" lat="62.0000" lon="-6.7833" name="Torshavn" country="Faroe Islands" cc="FO" sponsor="Faroese Telecom" id="462"  url2="http://internet.fo/speedtest/speedtest/upload.php" />
<server url="http://speedtest-ptz.citylink-rk.ru/speedtest/upload.php" lat="61.8167" lon="34.3333" name="Petrozavodsk" country="Russian Federation" cc="RU" sponsor="CityLink Ltd" id="1712"  />
<server url="http://speedtest.petrozavodsk.u-disk.ru/speedtest/upload.php" lat="61.7833" lon="34.3333" name="Petrozavodsk" country="Russian Federation" cc="RU" sponsor="Rostelecom" id="2621"  url2="http://speedtest2.petrozavodsk.u-disk.ru/speedtest/upload.php" />
<server url="http://speedtest.komi.u-disk.ru/speedtest/upload.php" lat="61.6667" lon="50.8167" name="Syktyvkar" country="Russian Federation" cc="RU" sponsor="Rostelecom" id="2622"  url2="http://speedtest2.komi.u-disk.ru/speedtest/upload.php" />
<server url="http://speedtest2.ttksever.ru/speedtest/upload.php" lat="61.6667" lon="50.8167" name="Syktyvkar" country="Russian Federation" cc="RU" sponsor="CJSC &quot;SeverTransTeleCom&quot;" id="3173"  url2="http://speedtest3.ttksever.ru/speedtest/upload.php" />
<server url="http://speedtest.tamico.com/speedtest/upload.php" lat="61.5000" lon="23.7667" name="Tampere" country="Finland" cc="FI" sponsor="Tamico Oy" id="1698"  url2="http://31.47.64.74/speedtest/upload.php" />
<server url="http://speedtest.enivest.net/speedtest/upload.php" lat="61.4431" lon="5.9036" name="Forde" country="Norway" cc="NO" sponsor="Enivest AS" id="899"  url2="http://217.149.113.142/speedtest/upload.php" />
<server url="http://speedtest.mtaonline.net/speedtest/upload.asp" lat="61.3214" lon="-149.5678" name="Eagle River, AK" country="United States" cc="US" sponsor="MTA Communications" id="3571"  url2="http://speedtest1.mtaonline.net/speedtest/upload.asp" />
<server url="http://speedtest.isurgut.ru/speedtest/upload.php" lat="61.2667" lon="73.4000" name="Surgut" country="Russian Federation" cc="RU" sponsor="OJSC Rostelecom" id="3258"  url2="http://speedtest.wsnet.ru/speedtest/upload.php" />
<server url="http://speedtest.sg.metro-set.ru/speedtest/upload.php" lat="61.2500" lon="73.4333" name="Surgut" country="Russian Federation" cc="RU" sponsor="METROSET" id="2313"  />
<server url="http://speedtest.ugratel.ru/speedtest/upload.php" lat="61.2500" lon="73.4333" name="Surgut" country="Russian Federation" cc="RU" sponsor="Ugratel" id="1929"  url2="http://speedtest.s86.ru/speedtest/upload.php" />
<server url="http://speedtest.sfj.no/speedtest/upload.php" lat="61.2308" lon="6.7897" name="Leikanger" country="Norway" cc="NO" sponsor="Sogn og Fjordane" id="981"  url2="http://93.94.14.6/speedtest/upload.php" />
<server url="http://speedtest.gci.net/speedtest/upload.php" lat="61.2183" lon="-149.8991" name="Anchorage, AK" country="United States" cc="US" sponsor="GCI" id="1555"  url2="http://209.165.131.125/speedtest/upload.php" />
<server url="http://speedtest.anc.acsalaska.net/speedtest/upload.php" lat="61.2183" lon="-149.8991" name="Anchorage, AK" country="United States" cc="US" sponsor="Alaska Communications" id="980"  />
<server url="http://speedtest.attalaska.net/speedtest/upload.php" lat="61.2183" lon="-149.8991" name="Anchorage, AK" country="United States" cc="US" sponsor="AT&amp;T Alascom" id="898"  />
<server url="http://speedtest.cvinternet.net/speedtest/upload.php" lat="61.1308" lon="-146.3483" name="Valdez, AK" country="United States" cc="US" sponsor="Copper Valley Internet" id="1409"  url2="http://209.161.164.6/speedtest/upload.php" />
<server url="http://speedtest1.nefteyugansk.comstar-r.ru/speedtest/upload.php" lat="61.0833" lon="72.7000" name="Nefteyugansk" country="Russian Federation" cc="RU" sponsor="MTS" id="2062"  url2="http://speedtest2.nefteyugansk.comstar-r.ru/speedtest/upload.php" />
<server url="http://speedtest.hmao.u-disk.ru/speedtest/upload.php" lat="61.0000" lon="69.0000" name="Khanty-Mansiysk" country="Russian Federation" cc="RU" sponsor="Rostelecom" id="3524"  url2="http://speedtest2.hmao.u-disk.ru/speedtest/upload.php" />
<server url="http://speedtest3.sib.comstar-r.ru/speedtest/upload.php" lat="60.9500" lon="76.5500" name="Nizhnevartovsk" country="Russian Federation" cc="RU" sponsor="MTS" id="2063"  url2="http://speedtest4.sib.comstar-r.ru/speedtest/upload.php" />
<server url="http://speedtest.pride-net.ru/speedtest/upload.php" lat="60.9344" lon="76.5531" name="Nizhnevartovsk" country="Russian Federation" cc="RU" sponsor="Pride" id="2799"  url2="http://speedtest.nv-net.ru/speedtest/upload.php" />
<server url="http://speedtest1.laitilanpuhelin.fi/speedtest/upload.php" lat="60.8792" lon="21.6931" name="Laitila" country="Finnland" cc="FN" sponsor="Laitilan Puhelin Osk" id="3447"  url2="http://speedtest2.laitilanpuhelin.fi/speedtest/upload.php" />
<server url="http://speedtest.wh.nwtel.ca/speedtest/upload.php" lat="60.7167" lon="-135.0500" name="Whitehorse, YT" country="Canada" cc="CA" sponsor="Northwestel Inc." id="2569"  url2="http://199.247.235.23/speedtest/upload.php" />
<server url="http://speedtest.woima.fi/speedtest/upload.php" lat="60.4500" lon="22.2667" name="Turku" country="Finland" cc="FI" sponsor="Woima Hosting Oy" id="1303"  />
<server url="http://speedtest.dataoppdrag.no/speedtest/upload.php" lat="60.3894" lon="5.3300" name="Bergen" country="Norway" cc="NO" sponsor="DataOppdrag AS" id="2301"  url2="http://speedtest2.dataoppdrag.no/speedtest/upload.php" />
<server url="http://speedtest.academica.fi/speedtest/upload.php" lat="60.2056" lon="24.6556" name="Espoo" country="Finland" cc="FI" sponsor="Academica Oy" id="1646"  url2="http://87.108.66.253/speedtest/upload.php" />
<server url="http://speedtest.pit.hel.nebula.fi/speedtest/upload.php" lat="60.1708" lon="24.9375" name="Helsinki" country="Finland" cc="FI" sponsor="Nebula Oy" id="864"  url2="http://188.117.57.252/speedtest/upload.php" />
<server url="http://speedtest.romm.no/speedtest/upload.php" lat="60.1500" lon="11.1833" name="Jessheim" country="Norway" cc="NO" sponsor="Romm AS" id="943"  url2="http://141.0.128.61/speedtest/upload.php" />
<server url="http://speedtest.alcom.ax/speedtest/upload.php" lat="60.1000" lon="19.9333" name="Mariehamn" country="Finland" cc="FI" sponsor="Alcom" id="1361"  url2="http://194.112.10.130/speedtest/upload.php" />
<server url="http://speedtest.spb.ertelecom.ru/speedtest/upload.php" lat="59.9500" lon="30.3167" name="Saint Petersburg" country="Russian Federation" cc="RU" sponsor="DOM.RU" id="2690"  url2="http://st.spb.ertelecom.ru/speedtest/upload.php" />
<server url="http://speedtest.peterburg.u-disk.ru/speedtest/upload.php" lat="59.9500" lon="30.3167" name="Saint Petersburg" country="Russian Federation" cc="RU" sponsor="Rostelecom" id="2599"  url2="http://speedtest2.peterburg.u-disk.ru/speedtest/upload.php" />
<server url="http://speedtest.megafonnw.ru/upload.php" lat="59.9500" lon="30.3167" name="Saint Petersburg" country="Russian Federation" cc="RU" sponsor="OJSC MegaFon (North-West)" id="1634"  url2="http://webmail.nwgsm.ru/speed/speedtest/upload.php" />
<server url="http://speedtest.hafslundtelekom.net/speedtest/upload.php" lat="59.9494" lon="10.7564" name="Oslo" country="Norway" cc="NO" sponsor="Kvantel" id="952"  url2="http://77.88.99.74/speedtest/upload.php" />
<server url="http://cdn-osl.blix.eu/mini/speedtest/upload.php" lat="59.9494" lon="10.7564" name="Oslo" country="Norway" cc="NO" sponsor="Blix Solutions AS" id="3378"  url2="http://speed.blix.eu/mini/speedtest/upload.php" />
<server url="http://speedtest.vo47.ru/speedtest/upload.php" lat="59.9167" lon="32.3500" name="Volkhov" country="Russian Federation" cc="RU" sponsor="Volkhov-Online Ltd." id="2086"  url2="http://testspeed.vo47.ru/speedtest/upload.php" />
<server url="http://speedtest.chtp.net/speedtest/upload.php" lat="59.8944" lon="30.2642" name="Saint Petersburg" country="Russian Federation" cc="RU" sponsor="Chaika- Telecom Peterburg LTD" id="2801"  url2="http://speedtest2.chtp.net/speedtest/upload.php" />
<server url="http://speedtest.sbor.net/speedtest/upload.php" lat="59.8897" lon="29.0856" name="Sosnovy Bor" country="Russian Federation" cc="RU" sponsor="LLC &quot;InfoCentre&quot;" id="2686"  url2="http://speedtest1.sbor.net/speedtest/upload.php" />
<server url="http://www.webmax.su/speedtest/upload.php" lat="59.8833" lon="30.9865" name="Kirovsk" country="Russian Federation" cc="RU" sponsor="WebMAX ltd." id="2193"  url2="http://webmax.su/speedtest/upload.php" />
<server url="http://speedtest.tinconet.ru/speedtest/upload.php" lat="59.7333" lon="30.3833" name="Pushkin" country="Russian Federation" cc="RU" sponsor="TincoNet" id="2376"  url2="http://st.tinconet.ru/speedtest/upload.php" />
<server url="http://speedtest.gtn.ru/speedtest/upload.php" lat="59.5667" lon="30.1333" name="Gatchina" country="Russian Federation" cc="RU" sponsor="Astra-Oreol" id="2123"  url2="http://speedtest-gtn.it-region.ru/speedtest/upload.php" />
<server url="http://speedtest.gatchina.ru/speedtest/upload.php" lat="59.5667" lon="30.1333" name="Gatchina" country="Russian Federation" cc="RU" sponsor="Gatchina-Online" id="2113"  url2="http://speedtest2.gatchina.ru/speedtest/upload.php" />
<server url="http://speedtest.magadan.u-disk.ru/speedtest/upload.php" lat="59.5500" lon="150.8000" name="Magadan" country="Russian Federation" cc="RU" sponsor="Rostelecom" id="3125"  url2="http://speedtest2.magadan.u-disk.ru/speedtest/upload.php" />
<server url="http://speed.kirishi.ru/speedtest/upload.php" lat="59.4500" lon="32.0000" name="Kirishi" country="Russian Federation" cc="RU" sponsor="ООО ТК &quot;ТОР&quot;" id="2071"  url2="http://www.speed.kirishi.ru/speedtest/upload.php" />
<server url="http://speedtest.elisa.ee/speedtest/upload.php" lat="59.4339" lon="24.7549" name="Tallinn" country="Estonia" cc="EE" sponsor="Elisa" id="2610"  url2="http://speedtest.manonet.ee/speedtest/upload.php" />
<server url="http://kiirustest.elion.ee/speedtest/upload.php" lat="59.4339" lon="24.7549" name="Tallinn" country="Estonia" cc="EE" sponsor="Elion Enterprises Limited" id="1322"  url2="http://194.126.108.76/speedtest/upload.php" />
<server url="http://speed.fiber.ee/speedtest/upload.php" lat="59.4339" lon="24.7549" name="Tallinn" country="Estonia" cc="EE" sponsor="Compic OU" id="3207"  url2="http://speed2.fiber.ee/speedtest/upload.php" />
<server url="http://sidur.tele2.ee/speedtest/upload.php" lat="59.4339" lon="24.7549" name="Tallinn" country="Estonia" cc="EE" sponsor="Tele2 Eesti" id="3606"  url2="http://pidur.tele2.ee/speedtest/upload.php" host="sidur.tele2.ee:8080" />
<server url="http://speedtest.ruslantk.ru/speedtest/upload.php" lat="59.3667" lon="28.6000" name="Kingisepp" country="Russian Federation" cc="RU" sponsor="RuslanTK" id="2120"  url2="http://speedtest-king.it-region.ru/speedtest/upload.php" />
<server url="http://speedtest01.kustbandet.com/mini/speedtest/upload.php" lat="59.3646" lon="18.1325" name="Lidingö" country="Sweden" cc="SE" sponsor="Kustbandet AB" id="2980"  url2="http://speedtest02.kustbandet.com/mini/speedtest/upload.php" />
<server url="http://speedtest.nanogroup.se/speedtest/upload.php" lat="59.3500" lon="18.0000" name="Solna" country="Sweden" cc="SE" sponsor="Nano IT Data Centers AB" id="1944"  url2="http://speedtest2.nanogroup.se/speedtest/upload.php" />
<server url="http://speedtest.spacedump.net/speedtest/upload.php" lat="59.3294" lon="18.0686" name="Stockholm" country="Sweden" cc="SE" sponsor="SpaceDump IT AB" id="2229"  url2="http://speedtest2.spacedump.net/speedtest/upload.php" />
<server url="http://speedtest1.vologda.comstar-r.ru/speedtest/upload.php" lat="59.2167" lon="39.9000" name="Vologda" country="Russian Federation" cc="RU" sponsor="MTS" id="1916"  url2="http://speedtest2.vologda.comstar-r.ru/speedtest/upload.php" />
<server url="http://speedtest.vologda.u-disk.ru/speedtest/upload.php" lat="59.2167" lon="39.9000" name="Vologda" country="Russian Federation" cc="RU" sponsor="Rostelecom" id="2596"  url2="http://speedtest2.vologda.u-disk.ru/speedtest/upload.php" />
<server url="http://speed.luglink.net/speedtest/upload.php" lat="58.7333" lon="29.8500" name="Luga" country="Russian Federation" cc="RU" sponsor="MAOUDOD" id="3445"  url2="http://speed2.luglink.net/speedtest/upload.php" />
<server url="http://speedtest1.orbita-nt.ru/speedtest/upload.php" lat="58.6208" lon="59.8478" name="Nizhnyaya Tura" country="Russian Federation" cc="RU" sponsor="Orbita.Ltd" id="3510"  url2="http://speedtest2.orbita-nt.ru/speedtest/upload.php" />
<server url="http://speedtest.kirov.u-disk.ru/speedtest/upload.php" lat="58.6000" lon="49.6500" name="Kirov" country="Russian Federation" cc="RU" sponsor="Rostelecom" id="3508"  url2="http://speedtest2.kirov.u-disk.ru/speedtest/upload.php" />
<server url="http://speedtest.kirov.ertelecom.ru/speedtest/upload.php" lat="58.6000" lon="49.6500" name="Kirov" country="Russian Federation" cc="RU" sponsor="DOM.RU" id="2702"  url2="http://st.kirov.ertelecom.ru/speedtest/upload.php" />
<server url="http://speedtest.vnov.comstar-r.ru/speedtest/upload.php" lat="58.5500" lon="31.2833" name="Velikiy Novgorod" country="Russian Federation" cc="RU" sponsor="MTS" id="1911"  url2="http://speedtest2.vnov.comstar-r.ru/speedtest/upload.php" />
<server url="http://speedtest.kostroma.u-disk.ru/speedtest/upload.php" lat="58.5500" lon="43.6830" name="Kostroma" country="Russian Federation" cc="Ru" sponsor="Rostelecom" id="3261"  url2="http://speedtest2.kostroma.u-disk.ru/speedtest/upload.php" />
<server url="http://speedtest.v.novgorod.u-disk.ru/speedtest/upload.php" lat="58.5333" lon="31.2667" name="Veliky Novgorod" country="Russian Federation" cc="RU" sponsor="Rostelecom" id="3540"  url2="http://speedtest2.v.novgorod.u-disk.ru/speedtest/upload.php" />
<server url="http://speedtest1.sib.comstar-r.ru/speedtest/upload.php" lat="58.1953" lon="68.2581" name="Tobolsk" country="Russian Federation" cc="RU" sponsor="MTS" id="2060"  url2="http://speedtest2.sib.comstar-r.ru/speedtest/upload.php" />
<server url="http://speedtest.perm.ertelecom.ru/speedtest/upload.php" lat="58.0000" lon="56.3167" name="Perm" country="Russian Federation" cc="RU" sponsor="DOM.RU" id="2660"  url2="http://st.perm.ertelecom.ru/speedtest/upload.php" />
<server url="http://www2.permonline.ru/speedtest/speedtest/upload.php" lat="58.0000" lon="56.3167" name="Perm" country="Russian Federation" cc="RU" sponsor="Rostelecom" id="975"  url2="http://base.permonline.ru/speedtest/speedtest/upload.php" />
<server url="http://speedtest1.psu.ru/speedtest/upload.php" lat="58.0000" lon="56.3167" name="Perm" country="Russian Federation" cc="RU" sponsor="Perm State University" id="3320"  url2="http://speedtest2.psu.ru/speedtest/upload.php" />
<server url="http://speedtest.ilim-telecom.ru/speedtest/upload.php" lat="58.0000" lon="102.6667" name="Ust-Ilimsk" country="Russian Federation" cc="RU" sponsor="Ilim-Telecom" id="3379"  url2="http://speedtest.ilim-telecom.ru/speedtest/upload2.php" />
<server url="http://ksilim.ru/mini/speedtest/upload.php" lat="58.0000" lon="102.6667" name="Ust-ilimsk" country="Russian Federation" cc="RU" sponsor="LLC &quot;KKS&quot;" id="3333"  url2="http://www.ksilim.ru/mini/speedtest/upload.php" />
<server url="http://www.hostnt.ru/speedtest/speedtest/upload.php" lat="57.9194" lon="59.9650" name="Nizhnii Tagil" country="Russian Federation" cc="RU" sponsor="HostNT.Ru" id="3002"  url2="http://www.oneevil.ru/speedtest/speedtest/upload.php" />
<server url="http://speedtest.setitagila.ru/speedtest/upload.php" lat="57.9167" lon="59.9667" name="Nizhnii Tagil" country="Russian Federation" cc="RU" sponsor="SetiTagila" id="1886"  url2="http://speedtest2.setitagila.ru/speedtest/upload.php" />
<server url="http://speedtest.pskov.u-disk.ru/speedtest/upload.php" lat="57.8167" lon="28.3333" name="Pskov" country="Russian Federation" cc="RU" sponsor="Rostelecom" id="3526"  url2="http://speedtest2.pskov.u-disk.ru/speedtest/upload.php" />
<server url="http://www.pskovline.ru/speedtest/speedtest/upload.php" lat="57.8167" lon="28.3333" name="Pskov" country="Russian Federation" cc="RU" sponsor="Pskovline LTD" id="1210"  />
<server url="http://speedtest1.ttksever.ru/speedtest/upload.php" lat="57.6198" lon="39.8554" name="Yaroslavl" country="Russian Federation" cc="RU" sponsor="CJSC TransTeleCom" id="3088"  url2="http://speedtest.ttksever.ru/speedtest/upload.php" />
<server url="http://st1.tensortelecom.ru/speedtest/upload.php" lat="57.6167" lon="39.8500" name="Yaroslavl" country="Russian Federation" cc="RU" sponsor="TensorTelecom" id="1796"  />
<server url="http://speedtest.yar.ertelecom.ru/speedtest/upload.php" lat="57.6167" lon="39.8500" name="Yaroslavl" country="Russian Federation" cc="RU" sponsor="JSC &quot;ER-Telecom Holding&quot;" id="2666"  url2="http://st.yar.ertelecom.ru/speedtest/upload.php" />
<server url="http://st1.yar-tt.ru/speedtest/upload.php" lat="57.6167" lon="39.8500" name="Yaroslavl" country="Russian Federation" cc="RU" sponsor="CJSC YarTranzitTelecom" id="2772"  url2="http://st2.yar-tt.ru/speedtest/upload.php" />
<server url="http://speedtest.yaroslavl.u-disk.ru/speedtest/upload.php" lat="57.6167" lon="39.8500" name="Yaroslavl" country="Russian Federation" cc="RU" sponsor="Rostelecom" id="2620"  url2="http://speedtest2.yaroslavl.u-disk.ru/speedtest/upload.php" />
<server url="http://www.shlab.se/speed/speedtest/upload.php" lat="57.5333" lon="13.3500" name="Limmared" country="Sweden" cc="SE" sponsor="Satellithuset i limmared ab" id="3393"  url2="http://www.mikrotik.se/speed/speedtest/upload.php" />
<server url="http://194.105.179.1/speedtest/upload.asp" lat="57.1526" lon="-2.1100" name="Aberdeen" country="Great Britain" cc="GB" sponsor="Internet For Business Ltd" id="1377"  url2="http://speedtest.ifb.net/speedtest/upload.asp" />
<server url="http://speedtest.ttknet.ru/speedtest/upload.php" lat="57.1500" lon="65.5333" name="Tyumen" country="Russian Federation" cc="RU" sponsor="Rostelecom" id="2752"  url2="http://tumen.ttknet.ru/speedtest/upload.php" />
<server url="http://speedtest.i-jetcity.ru/speedtest/upload.php" lat="57.1500" lon="65.5333" name="Tyumen" country="Russian Federation" cc="RU" sponsor="I-Jet Communications" id="2314"  />
<server url="http://speedtest.tmn.ertelecom.ru/speedtest/upload.php" lat="57.1500" lon="65.5333" name="Tyumen" country="Russian Federation" cc="RU" sponsor="DOM.RU" id="2697"  url2="http://st.tmn.ertelecom.ru/speedtest/upload.php" />
<server url="http://speedtest.oborona.net/speedtest/upload.php" lat="57.1500" lon="65.5333" name="Tyumen" country="Russian Federation" cc="RU" sponsor="Delta Telesystems" id="988"  />
<server url="http://sptest.inet72.ru/speedtest/upload.php" lat="57.1500" lon="65.5333" name="Tyumen" country="Russian Federation" cc="RU" sponsor="NetLine NSP Ltd." id="2202"  url2="http://sptest2.inet72.ru/speedtest/upload.php" />
<server url="http://speedtest1.n37.ru/speedtest/upload.php" lat="56.9967" lon="40.9819" name="Ivanovo" country="Russian Federation" cc="RU" sponsor="TTK" id="2960"  url2="http://speedtest2.n37.ru/speedtest/upload.php" />
<server url="http://speedtest1.ivanovo.comstar-r.ru/speedtest/speedtest/upload.php" lat="56.9967" lon="40.9819" name="Ivanovo" country="Russian Federation" cc="RU" sponsor="MTS" id="1857"  url2="http://speedtest2.ivanovo.comstar-r.ru/speedtest/speedtest/upload.php" />
<server url="http://speedtest1.srnet.lv/speedtest/upload.php" lat="56.9496" lon="24.1040" name="Riga" country="Latvia" cc="LV" sponsor="SIA Stream Networks" id="2151"  url2="http://speedtest2.srnet.lv/speedtest/upload.php" />
<server url="http://www.ping.lv/speedtest/upload.php" lat="56.9496" lon="24.1040" name="Riga" country="Latvia" cc="LV" sponsor="AS Balticom" id="1348"  url2="http://speedtest.ping.lv/speedtest/upload.php" />
<server url="http://speedtest.alphahost.lv/speedtest/upload.php" lat="56.9496" lon="24.1040" name="Riga" country="Latvia" cc="LV" sponsor="AlphaHost.lv" id="3285"  url2="http://speedtest2.alphahost.lv/speedtest/upload.php" />
<server url="http://net.speedtest.lv/speedtest/upload.php" lat="56.9496" lon="24.1040" name="Riga" country="Latvia" cc="LV" sponsor="Lattelecom" id="1268"  />
<server url="http://speedtest1.tver.comstar-r.ru/speedtest/speedtest/upload.php" lat="56.8667" lon="35.9167" name="Tver" country="Russian Federation" cc="RU" sponsor="MTS" id="1909"  url2="http://speedtest2.tver.comstar-r.ru/speedtest/speedtest/upload.php" />
<server url="http://speedtest.tver.u-disk.ru/speedtest/upload.php" lat="56.8667" lon="35.9167" name="Tver" country="Russian Federation" cc="RU" sponsor="Rostelecom" id="3265"  url2="http://speedtest2.tver.u-disk.ru/speedtest/upload.php" />
<server url="http://speedtest.tver.ertelecom.ru/speedtest/upload.php" lat="56.8667" lon="35.9167" name="Tver" country="Russian Federation" cc="RU" sponsor="DOM.RU" id="2732"  url2="http://st.tver.ertelecom.ru/speedtest/upload.php" />
<server url="http://mini1.speedtest.rtelekom.ru/speedtest/upload.php" lat="56.8667" lon="35.9167" name="Tver" country="Russian Federation" cc="RU" sponsor="Ратмир-Телеком" id="2524"  url2="http://mini2.speedtest.rtelekom.ru/speedtest/upload.php" />
<server url="http://speedtest.izhevsk.net/speedtest/upload.php" lat="56.8333" lon="53.1833" name="Izhevsk" country="Russian Federation" cc="RU" sponsor="Mark-ITT" id="1136"  url2="http://217.14.203.145/speedtest/upload.php" />
<server url="http://speedtest.18r.ru/speedtest/upload.php" lat="56.8333" lon="53.1833" name="Izhevsk" country="Russian Federation" cc="RU" sponsor="Izhline Ltd." id="1802"  />
<server url="http://speedtest.izhevsk.u-disk.ru/speedtest/upload.php" lat="56.8333" lon="53.1833" name="Izhevsk" country="Russian Federation" cc="RU" sponsor="Rostelecom" id="3516"  url2="http://speedtest2.izhevsk.u-disk.ru/speedtest/upload.php" />
<server url="http://speedtest.izhnet.ru/speedtest/upload.php" lat="56.8333" lon="53.1833" name="Izhevsk" country="Russian Federation" cc="RU" sponsor="LinerTelecom" id="2199"  url2="http://u11174.hosting.izhnet.ru/speedtest/upload.php" />
<server url="http://speedtest.ekat.u-disk.ru/speedtest/upload.php" lat="56.8333" lon="60.5833" name="Ekaterinburg" country="Russian Federation" cc="RU" sponsor="Rostelecom" id="2602"  />
<server url="http://speedtest01.youlan.ru/speedtest/upload.php" lat="56.8333" lon="60.5833" name="Yekaterinburg" country="Russian Federation" cc="RU" sponsor="YouLAN" id="3205"  url2="http://speedtest02.youlan.ru/speedtest/upload.php" />
<server url="http://tarvalon.ural.net/speedtest/upload.php" lat="56.8333" lon="60.5833" name="Ekaterinburg" country="Russian Federation" cc="RU" sponsor="Ural WES" id="1930"  url2="http://195.64.192.47/speedtest/upload.php" />
<server url="http://speedtest.ekat.ertelecom.ru/speedtest/upload.php" lat="56.8333" lon="60.5833" name="Ekaterinburg" country="Russian Federation" cc="RU" sponsor="DOM.RU" id="2705"  url2="http://st.ekat.ertelecom.ru/speedtest/upload.php" />
<server url="http://speedtest.ural.comstar-r.ru/speedtest/upload.php" lat="56.8333" lon="60.5833" name="Ekaterinburg" country="Russian Federation" cc="RU" sponsor="MTS" id="1908"  url2="http://speedtest1.ural.comstar-r.ru/speedtest/upload.php" />
<server url="http://62.33.153.253/speedtest/upload.php" lat="56.8333" lon="60.5833" name="Ekaterinburg" country="Russian Federation" cc="RU" sponsor="CJSC Ural-TransTeleCom" id="955"  />
<server url="http://speedtest.oic.lv/speedtest/upload.php" lat="56.8167" lon="24.6056" name="Ogre" country="Latvia" cc="LV" sponsor="SIA Ogres Interneta Cntrs" id="996"  />
<server url="http://speed.tmpk.net/speedtest/upload.php" lat="56.7333" lon="37.1667" name="Dubna" country="Russian Federation" cc="RU" sponsor="Telecom MPK" id="2831"  url2="http://speedtest.tmpk.net/speedtest/upload.php" />
<server url="http://st1.dubna.ru/speedtest/upload.php" lat="56.7333" lon="37.1667" name="Dubna" country="Russian Federation" cc="RU" sponsor="Contact Company Ltd." id="2786"  url2="http://st2.dubna.ru/speedtest/upload.php" />
<server url="http://speedtest.yola.u-disk.ru/speedtest/upload.php" lat="56.6333" lon="47.8667" name="Yoshkar-ola" country="Russian Federation" cc="RU" sponsor="Rostelecom" id="3511"  url2="http://speedtest2.yola.u-disk.ru/speedtest/upload.php" />
<server url="http://speedtest.yola.ertelecom.ru/speedtest/upload.php" lat="56.6333" lon="47.8667" name="Yoshkar-ola" country="Russian Federation" cc="RU" sponsor="DOM.RU" id="2662"  url2="http://st.yola.ertelecom.ru/speedtest/upload.php" />
<server url="http://e-vels.lv/btest/speedtest/upload.php" lat="56.5500" lon="27.7167" name="Ludza" country="Latvia" cc="LV" sponsor="E-vels Internets" id="2022"  url2="http://www.e-vels.lv/btest/speedtest/upload.php" />
<server url="http://speed.ostkom.lv/speedtest/upload.php" lat="56.5117" lon="21.0139" name="Liepaja" country="Latvia" cc="LV" sponsor="SIA OSTKOM" id="2450"  url2="http://speedtest.ostkom.lv/speedtest/upload.php" />
<server url="http://net.elektrons-k.lv/speedtest/upload.php" lat="56.5117" lon="21.0139" name="Liepaja" country="Latvia" cc="LV" sponsor="Elektrons&amp;K" id="2739"  url2="http://speedtest.elektrons-k.lv/speedtest/upload.php" />
<server url="http://ext.speedtest.nts.su/speedtest/upload.php" lat="56.5000" lon="84.9667" name="Tomsk" country="Russian Federation" cc="RU" sponsor="NEW TELESYSTEMS" id="3041"  url2="http://ext2.speedtest.nts.su/speedtest/upload.php" />
<server url="http://speed-tmk.myttk.ru/speedtest/upload.php" lat="56.5000" lon="84.9667" name="Tomsk" country="Russian Federation" cc="RU" sponsor="JSC Zap-Sib TransTeleCom" id="1829"  />
<server url="http://speedtest.tomsknet.ru/speedtest/upload.php" lat="56.5000" lon="84.9667" name="Tomsk" country="Russian Federation" cc="RU" sponsor="Rostelecom" id="1287"  />
<server url="http://speedtest.tomsk.ertelecom.ru/speedtest/upload.php" lat="56.4942" lon="84.9742" name="Tomsk" country="Russian Federation" cc="RU" sponsor="DOM.RU" id="2943"  url2="http://st.tomsk.ertelecom.ru/speedtest/upload.php" />
<server url="http://st.lanonline.ru/speedtest/upload.php" lat="56.4500" lon="60.1833" name="Polevskoy" country="Russian Federation" cc="RU" sponsor="ТТЦ Радиотехника" id="2994"  url2="http://st.rti66.ru/speedtest/upload.php" />
<server url="http://tele-set.net/st/speedtest/upload.php" lat="56.4439" lon="52.2158" name="Mozhga" country="Russia" cc="RU" sponsor="TeleSet - Mozhga" id="2003"  url2="http://vmozhge.ru/st/speedtest/upload.php" />
<server url="http://speed.polevskoynet.ru/speedtest/upload.php" lat="56.4422" lon="60.1878" name="Polevskoy" country="Russian Federation" cc="RU" sponsor="INTERRA telecommunications group, Ltd." id="3112"  url2="http://speed2.polevskoynet.ru/speedtest/upload.php" />
<server url="http://st.trytek.ru/speedtest/upload.php" lat="56.3916" lon="38.7138" name="Alexandrov" country="Russian Federation" cc="RU" sponsor="Trytek Ltd." id="1577"  />
<server url="http://speed.aleks.fm/speedtest/upload.php" lat="56.3916" lon="38.7138" name="Alexandrov" country="Russian Federation" cc="RU" sponsor="Alexandrov, FM" id="2995"  url2="http://speed2.aleks.fm/speedtest/upload.php" />
<server url="http://www.kovrov.net/speedtest/speedtest/upload.php" lat="56.3667" lon="41.3333" name="Kovrov" country="Russia" cc="RU" sponsor="KovrovTelecom Ltd." id="2117"  url2="http://195.230.109.4/speedtest/speedtest/upload.php" />
<server url="http://speedtest1.itnet33.ru/speedtest/upload.php" lat="56.3667" lon="41.3333" name="Kovrov" country="Russia" cc="RU" sponsor="ITNet33" id="2642"  url2="http://speedtest2.itnet33.ru/speedtest/upload.php" />
<server url="http://speed.fastlnk.ru/speedtest/upload.php" lat="56.3500" lon="35.9167" name="Tver" country="Russian Federation" cc="RU" sponsor="Fast Link Ltd." id="1111"  />
<server url="http://speedtest.nn.ertelecom.ru/speedtest/upload.php" lat="56.3264" lon="44.0078" name="Nizhny Novgorod" country="Russian Federation" cc="RU" sponsor="DOM.RU" id="2698"  url2="http://st.nn.ertelecom.ru/speedtest/upload.php" />
<server url="http://speed.ruweb-nn.ru/speedtest/upload.php" lat="56.3264" lon="44.0078" name="Nizhny Novgorod" country="Russian Federation" cc="RU" sponsor="Ruweb-NN" id="2423"  url2="http://st.ruweb-nn.ru/speedtest/upload.php" />
<server url="http://speed.megafoncenter.ru/speedtest/upload.php" lat="56.3264" lon="44.0078" name="Nizhny Novgorod" country="Russian Federation" cc="RU" sponsor="Megafon" id="1790"  url2="http://83.149.42.190/speedtest/upload.php" />
<server url="http://speedtest.pif-paf.ru/speedtest/upload.php" lat="56.3264" lon="44.0078" name="Nizhny Novgorod" country="Russian Federation" cc="RU" sponsor="Comstar-r" id="3170"  url2="http://speedtest1.pif-paf.ru/speedtest/upload.php" />
<server url="http://speedtest.nnov.u-disk.ru/speedtest/upload.php" lat="56.3264" lon="44.0078" name="Nizhny Novgorod" country="Russian Federation" cc="RU" sponsor="Rostelecom" id="2563"  url2="http://speedtest2.nnov.u-disk.ru/speedtest/upload.php" />
<server url="http://speedtest.dalmatovo.ru/speedtest/upload.php" lat="56.2678" lon="62.9166" name="Dalmatovo" country="Russian Federation" cc="RU" sponsor="ltd Rus" id="3040"  url2="http://speedtest1.dalmatovo.ru/speedtest/upload.php" />
<server url="http://dzrspeedtest.nnov.comstar-r.ru/speedtest/upload.asp" lat="56.2333" lon="43.4500" name="Dzerzhinsk" country="Russian Federation" cc="RU" sponsor="MTS" id="2147"  url2="http://dzrspeedtest1.nnov.comstar-r.ru/speedtest/upload.asp" />
<server url="http://speedtest.istokk.ru/speedtest/upload.php" lat="56.2017" lon="95.7175" name="Kansk" country="Russian Federation" cc="RU" sponsor="Istok Ltd" id="2851"  url2="http://st.istokk.ru/speedtest/upload.php" />
<server url="http://speedtest.lejetlan.dk/speedtest/upload.php" lat="56.1582" lon="10.2101" name="Aarhus" country="Denmark" cc="DK" sponsor="Lej-et-LAN" id="3443"  url2="http://195.189.131.14/speedtest/upload.php" />
<server url="http://mini.megaseti.ru/speedtest/upload.php" lat="56.1333" lon="40.4167" name="Vladimir" country="Russian Federation" cc="RU" sponsor="Megaseti" id="3509"  url2="http://mini.megaseti.ru/speedtest/upload.php" />
<server url="http://speedtest1.dobroe.ru/speedtest/upload.php" lat="56.1333" lon="40.4167" name="Vladimir" country="Russian Federation" cc="RU" sponsor="MTS" id="1893"  url2="http://speedtest2.dobroe.ru/speedtest/upload.php" />
<server url="http://speedtest.vladimir.u-disk.ru/speedtest/upload.php" lat="56.1333" lon="40.4167" name="Vladimir" country="Russian Federation" cc="RU" sponsor="Rostelecom" id="3523"  url2="http://speedtest2.vladimir.u-disk.ru/speedtest/upload.php" />
<server url="http://speedtest.cheb.ertelecom.ru/speedtest/upload.php" lat="56.1333" lon="47.2500" name="Cheboksary" country="Russian Federation" cc="RU" sponsor="DOM.RU" id="2731"  url2="http://st.cheb.ertelecom.ru/speedtest/upload.php" />
<server url="http://speedtest.info-link.ru/speedtest/upload.php" lat="56.1333" lon="47.2500" name="Cheboksary" country="Russian Federation" cc="RU" sponsor="Infolink" id="3555"  url2="http://speedtest2.info-link.ru/speedtest/upload.php" />
<server url="http://speed.etherway.ru/speedtest/upload.php" lat="56.1333" lon="47.2500" name="Cheboksary" country="Russian Federation" cc="RU" sponsor="Etherway" id="1215"  />
<server url="http://speedtest.shadrinsk.net/speedtest/upload.php" lat="56.1333" lon="63.6500" name="Shadrinsk" country="Russian Federation" cc="RU" sponsor="Courier Plus ISP" id="995"  url2="http://speedtest2.shadrinsk.net/speedtest/upload.php" />
<server url="http://www.orion33.net/speedtest/speedtest/upload.php" lat="56.0167" lon="39.9500" name="Lakinsk" country="Russian Federation" cc="RU" sponsor="orion33" id="3438"  url2="http://wwwcopy.orion33.net/speedtest/speedtest/upload.php" />
<server url="http://www.intertax.ru/speedtest/speedtest/upload.php" lat="56.0167" lon="93.0667" name="Krasnoyarsk" country="Russian Federation" cc="RU" sponsor="JSC Intertax" id="909"  url2="http://intertax.ru/speedtest/speedtest/upload.php" />
<server url="http://test.optizone.ru/speedtest/upload.php" lat="56.0167" lon="93.0667" name="Krasnoyarsk" country="Russian Federation" cc="RU" sponsor="OptiZone Ltd." id="1230"  />
<server url="http://speedtest.krsk.ertelecom.ru/speedtest/upload.php" lat="56.0167" lon="93.0667" name="Krasnoyarsk" country="Russian Federation" cc="RU" sponsor="DOM.RU" id="2701"  url2="http://st.krsk.ertelecom.ru/speedtest/upload.php" />
<server url="http://www.speedtest.rastrnet.ru/upload.php" lat="56.0091" lon="92.8628" name="Krasnoyarsk" country="Russian Federation" cc="RU" sponsor="Rastr" id="2790"  url2="http://www.speedtest.rastr.tv/upload.php" />
<server url="http://speedtest.krasnoyarsk.u-disk.ru/speedtest/upload.php" lat="56.0026" lon="92.8853" name="Кrasnoyarsk" country="Russian Federation" cc="RU" sponsor="Rostelecom" id="3545"  url2="http://speedtest2.krasnoyarsk.u-disk.ru/speedtest/upload.php" />
<server url="http://www.topnet.lt/speedtest/upload.php" lat="55.9833" lon="22.9167" name="Kursenai" country="Lithuanua" cc="LT" sponsor="UAB TOPNET" id="3118"  />
<server url="http://vweb1.fluency.net.uk/speedtest/speedtest/upload.php" lat="55.9500" lon="-3.2000" name="Edinburgh" country="Great Britain" cc="GB" sponsor="Fluency Communications" id="2937"  url2="http://vweb2.fluency.net.uk/speedtest/speedtest/upload.php" />
<server url="http://speedtest.dolgoprudniy.u-disk.ru/speedtest/upload.php" lat="55.9406" lon="37.5183" name="Dolgoprudny" country="Russian Federation" cc="RU" sponsor="Rostelecom" id="3515"  url2="http://speedtest2.dolgoprudniy.u-disk.ru/speedtest/upload.php" />
<server url="http://speedtest.telecom.mipt.ru/speedtest/upload.php" lat="55.9406" lon="37.5183" name="Dolgoprudny" country="Russian Federation" cc="RU" sponsor="MIPT-Telecom" id="874"  />
<server url="http://st.prado.lt/speedtest/upload.php" lat="55.9281" lon="23.3150" name="Siauliai" country="Lithuania" cc="LT" sponsor="Prado Solutions" id="2948"  url2="http://speed.staffless.ru/speedtest/upload.php" />
<server url="http://info.telecom-net.ru/speedtest/upload.php" lat="55.9200" lon="36.8687" name="Istra" country="Russian Federation" cc="RU" sponsor="Telecom-Net Network" id="2882"  url2="http://195.26.30.3/speedtest/upload.php" />
<server url="http://speed.istranet.ru/speedtest/upload.php" lat="55.9167" lon="36.8667" name="Istra" country="Russia" cc="RU" sponsor="OOO Istranet" id="1950"  url2="http://176.62.176.85/speedtest/upload.php" />
<server url="http://intek-m.ru/speedtest/upload.php" lat="55.9167" lon="37.7667" name="Mytishchi" country="Russian Federation" cc="RU" sponsor="Intek-M" id="2282"  url2="http://mytischi.net/speedtest/upload.php" />
<server url="http://korolev.city-link.info/speedtest/upload.php" lat="55.9167" lon="37.8167" name="Korolev" country="Russian Federation" cc="RU" sponsor="CityLink" id="2228"  url2="http://speed.city-link.info/speedtest/upload.php" />
<server url="http://speed.lite-telecom.ru/speedtest/upload.php" lat="55.9167" lon="38.0000" name="Shchyolkovo" country="Russian Federation" cc="RU" sponsor="Lite-Telecom" id="2735"  url2="http://speed.shchelkovo-net.ru/speedtest/upload.php" />
<server url="http://lubi.su/speedtest/speedtest/upload.php" lat="55.8900" lon="37.4400" name="Khimki" country="Russian Federation" cc="RU" sponsor="Lubi" id="3437"  url2="http://www.lubi.su/speedtest/speedtest/upload.php" />
<server url="http://speedtest.bigtelecom.ru/speedtest/upload.php" lat="55.8900" lon="37.4400" name="Khimki" country="Russian Federation" cc="RU" sponsor="BIG Telecom" id="775"  url2="http://87.255.1.133/speedtest/upload.php" />
<server url="http://telincom.ru/speedtest/speedtest/upload.php" lat="55.8900" lon="37.4400" name="Khimki" country="Russian Federation" cc="RU" sponsor="Telincom" id="2551"  url2="http://khimki.info/speedtest/speedtest/upload.php" />
<server url="http://speedtest.dautkom.lv/speedtest/upload.php" lat="55.8800" lon="26.5100" name="Daugavpils" country="Latvia" cc="LV" sponsor="DauTKom TV" id="1399"  url2="http://62.205.205.2/speedtest/upload.php" />
<server url="http://speedtest.flex.ru/speedtest/upload.php" lat="55.8550" lon="38.4419" name="Noginsk" country="Russian Federation" cc="RU" sponsor="Ltd. &quot;Flex&quot;" id="3202"  url2="http://speedtest2.flex.ru/speedtest/upload.php" />
<server url="http://speed.ipls.ru/speedtest/upload.php" lat="55.8167" lon="37.3333" name="Krasnogorsk" country="Russian Federation" cc="RU" sponsor="IPLS" id="3139"  url2="http://speed.krastelcom.ru/speedtest/upload.php" />
<server url="http://speedtest1.mksbalashihi.ru/speedtest/upload.php" lat="55.8167" lon="37.9667" name="Balashikha" country="Russian Federation" cc="RU" sponsor="MTS" id="2061"  url2="http://speedtest2.mksbalashihi.ru/speedtest/upload.php" />
<server url="http://testspeed.tattelecom.ru/speedtest/upload.php" lat="55.7951" lon="49.1089" name="Kazan" country="Russian Federation" cc="RU" sponsor="Tattelecom" id="1325"  url2="http://speedtest.tattelecom.ru/speedtest/upload.php" />
<server url="http://speedtest.kzn.ertelecom.ru/speedtest/upload.php" lat="55.7951" lon="49.1089" name="Kazan" country="Russian Federation" cc="RU" sponsor="DOM.RU" id="2703"  url2="http://st.kzn.ertelecom.ru/speedtest/upload.php" />
<server url="http://spt.elkatel.ru/speedtest/upload.php" lat="55.7833" lon="38.4667" name="Elektrostal" country="Russian Federation" cc="RU" sponsor="ZAO ELKATEL" id="2179"  url2="http://speedtest.elkatel.ru/speedtest/upload.php" />
<server url="http://speedtest-1.synt.rutube.ru/speedtest/upload.php" lat="55.7500" lon="37.6167" name="Moscow" country="Russian Federation" cc="RU" sponsor="RuTube" id="2322"  url2="http://speedtest-2.synt.rutube.ru/speedtest/upload.php" />
<server url="http://83.102.180.7/speedtest/upload.php" lat="55.7500" lon="37.6167" name="Moscow" country="Russian Federation" cc="RU" sponsor="Beeline" id="1897"  />
<server url="http://librarian.comstar.ru/speedtest/speedtest/upload.php" lat="55.7500" lon="37.6167" name="Moscow" country="Russian Federation" cc="RU" sponsor="MTS" id="1907"  url2="http://mail0.comstar.ru/speedtest/speedtest/upload.php" />
<server url="http://speedtest.moscow.megafon.ru/speedtest/upload.php" lat="55.7500" lon="37.6167" name="Moscow" country="Russian Federation" cc="RU" sponsor="Megafon" id="1789"  url2="http://193.201.230.9/speedtest/upload.php" />
<server url="http://speedtest.comendo.com/speedtest/upload.php" lat="55.7333" lon="12.4833" name="Gladsaxe" country="Denmark" cc="DK" sponsor="Comendo A/S" id="3514"  url2="http://speedtest2.comendo.com/speedtest/upload.php" />
<server url="http://yrga.ru/speed/speedtest/upload.php" lat="55.7231" lon="84.8861" name="Yurga" country="Russian Federation" cc="RU" sponsor="OAO Yurgatelecom" id="3157"  url2="http://31.170.187.225/speed/speedtest/upload.php" />
<server url="http://stnet1.balticum.lt/speedtest/upload.php" lat="55.7000" lon="21.1333" name="Klaipeda" country="Lithuania" cc="LT" sponsor="Balticum TV" id="3556"  url2="http://stnet2.balticum.lt/speedtest/upload.php" />
<server url="http://speed-klaipeda.zebra.lt/speedtest/upload.php" lat="55.7000" lon="21.1333" name="Klaipeda" country="Lithuania" cc="LT" sponsor="TEO LT" id="1385"  url2="http://81.7.119.10/speedtest/upload.php" />
<server url="http://speedtest.chelny.ertelecom.ru/speedtest/upload.php" lat="55.6833" lon="52.3167" name="Naberezhnye Chelny" country="Russian Federation" cc="RU" sponsor="DOM.RU" id="2664"  url2="http://st.chelny.ertelecom.ru/speedtest/upload.php" />
<server url="http://speedtest.zensystems.dk/speedtest/upload.php" lat="55.6750" lon="12.5687" name="Copenhagen" country="Denmark" cc="DK" sponsor="Zen Systems" id="1133"  url2="http://speedtest2.zensystems.dk/speedtest/upload.php" />
<server url="http://speedtest.dsv.com/speedtest/upload.aspx" lat="55.6750" lon="12.5687" name="Copenhagen" country="Denmark" cc="DK" sponsor="DSV A/S" id="2815"  url2="http://speedtest.dsv.com/speedtest/upload2.aspx" />
<server url="http://speed.vltele.com/speedtest/upload.php" lat="55.6667" lon="37.2833" name="Odintsovo" country="Russian Federation" cc="RU" sponsor="VL-Telecom Ltd" id="2074"  url2="http://speedtest.vltele.com/speedtest/upload.php" />
<server url="http://sptest1.gc-net.eu/speedtest/upload.php" lat="55.6500" lon="12.3000" name="Taastrup" country="Denmark" cc="DK" sponsor="GlobalConnect A/S" id="2908"  url2="http://sptest2.gc-net.eu/speedtest/upload.php" />
<server url="http://speedtest.ironnet.info/speedtest/upload.php" lat="55.6500" lon="109.3167" name="Severobaykalsk" country="Russian Federation" cc="RU" sponsor="LLC Ironnet" id="3288"  url2="http://ironnet.info/mini/speedtest/upload.php" />
<server url="http://s.glnt.ru/speedtest/upload.php" lat="55.6147" lon="36.9872" name="Golitsyno" country="Russian Federation" cc="RU" sponsor="Golitsyn Network" id="2774"  url2="http://speed.glnt.ru/speedtest/upload.php" />
<server url="http://speedtest.gsystem.ru/speedtest/upload.php" lat="55.5972" lon="38.1203" name="Zhukovsky" country="Russian Federation" cc="RU" sponsor="G-System llc" id="2306"  url2="http://speedtest2.gsystem.ru/speedtest/upload.php" />
<server url="http://st.giga.su/speedtest/upload.php" lat="55.5972" lon="38.1203" name="Zhukovsky" country="Russian Federation" cc="RU" sponsor="ISP Gigabit Ltd." id="2520"  url2="http://speedtest.giga.su/speedtest/upload.php" />
<server url="http://speed8.znportal.ru/speedtest/upload.php" lat="55.5953" lon="38.1203" name="Zhukovskiy" country="Russian Federation" cc="RU" sponsor="Zhukovsky.Net" id="3063"  url2="http://speed4.znportal.ru/speedtest/upload.php" />
<server url="http://speedtest.tmnet.se/speedtest/upload.php" lat="55.5833" lon="13.0333" name="Malmo" country="Sweden" cc="SE" sponsor="Teknikmejeriet AB" id="330"  url2="http://84.243.62.5/speedtest/upload.php" />
<server url="http://speedtest.izmuroma.ru/speedtest/upload.php" lat="55.5667" lon="42.0333" name="Murom" country="Russia" cc="RU" sponsor="InformTech" id="1989"  url2="http://www.speedtest.izmuroma.ru/speedtest/upload.php" />
<server url="http://speedtest-kurgan-eine.is74.ru/speedtest/upload.php" lat="55.4667" lon="65.3500" name="Kurgan" country="Russian Federation" cc="RU" sponsor="JSC Intersvyaz" id="2724"  url2="http://speedtest-kurgan-zwei.is74.ru/speedtest/upload.php" />
<server url="http://speedtest.infocentr.ru/speedtest/upload.php" lat="55.4667" lon="65.3500" name="Kurgan" country="Russian Federation" cc="RU" sponsor="LLC Infocentr" id="979"  url2="http://speedtest.icentr.net/speedtest/upload.php" />
<server url="http://speedtest.kurgan.ertelecom.ru/speedtest/upload.php" lat="55.4667" lon="65.3500" name="Kurgan" country="Russian Federation" cc="RU" sponsor="DOM.RU" id="2700"  url2="http://st.kurgan.ertelecom.ru/speedtest/upload.php" />
<server url="http://speedtest.kollegienet.dk/speedtest/upload.php" lat="55.3935" lon="10.3949" name="Odense" country="Denmark" cc="DK" sponsor="Foreningen Kollegienet Odense" id="2920"  url2="http://speedtest2.kollegienet.dk/speedtest/upload.php" />
<server url="http://speed-kmo.myttk.ru/speedtest/upload.php" lat="55.3608" lon="86.0889" name="Kemerovo" country="Russian Federation" cc="RU" sponsor="JSC Zap-Sib TransTeleCom" id="1832"  />
<server url="http://test.club42.ru/speedtest/upload.php" lat="55.3608" lon="86.0889" name="Kemerovo" country="Russian Federation" cc="RU" sponsor="club42.ru" id="1064"  />
<server url="http://speed.kemerovo.comstar-r.ru/speedtest/upload.php" lat="55.3608" lon="86.0889" name="Kemerovo" country="Russian Federation" cc="RU" sponsor="MTS Kemerovo" id="2632"  url2="http://94.229.228.34/speedtest/upload.php" />
<server url="http://speedtest.goodline.info/speedtest/upload.php" lat="55.3608" lon="86.0889" name="Kemerovo" country="Russia" cc="RU" sponsor="Good Line" id="1925"  url2="http://kemerovo-speedtest.goodline.info/speedtest/upload.php" />
<server url="http://speedtest.vosnet.ru/speedtest/upload.php" lat="55.3167" lon="38.7000" name="Voskresensk" country="Russian Federation" cc="RU" sponsor="PRK EPL" id="1115"  />
<server url="http://speedtest1.iwantwireless.ca/speedtest/upload.php" lat="55.2217" lon="-118.0203" name="DeBolt, AB" country="Canada" cc="CA" sponsor="Iwantwireless.ca Ltd" id="2534"  url2="http://speedtest2.iwantwireless.ca/speedtest/upload.php" />
<server url="http://speedtest.coool.ca/speedtest/upload.aspx" lat="55.1708" lon="-118.7947" name="Grande Prairie, AB" country="Canada" cc="CA" sponsor="GPN Wireless Network Sol" id="1247"  />
<server url="http://speedtest-west.eastlink.ca/speedtest/upload.php" lat="55.1708" lon="-118.7947" name="Grande Prairie, AB" country="Canada" cc="CA" sponsor="Eastlink" id="2555"  url2="http://64.178.142.14/speedtest/upload.php" />
<server url="http://speedtest-zlatoust-eine.is74.ru/speedtest/upload.php" lat="55.1667" lon="59.6667" name="Zlatoust" country="Russian Federation" cc="RU" sponsor="JSC Intersvyaz" id="2723"  url2="http://speedtest-zlatoust-zwei.is74.ru/speedtest/upload.php" />
<server url="http://speedtest.chelyabinsk.u-disk.ru/speedtest/upload.php" lat="55.1667" lon="61.4000" name="Chelyabinsk" country="Russian Federation" cc="RU" sponsor="Rostelecom" id="3527"  url2="http://speedtest2.chelyabinsk.u-disk.ru/speedtest/upload.php" />
<server url="http://speedtest.chel.ertelecom.ru/speedtest/upload.php" lat="55.1667" lon="61.4000" name="Chelyabinsk" country="Russian Federation" cc="RU" sponsor="DOM.RU" id="2717"  url2="http://st.chel.ertelecom.ru/speedtest/upload.php" />
<server url="http://st.vashetv.ru/speedtest/upload.php" lat="55.1667" lon="61.4000" name="Chelyabinsk" country="Russian Federation" cc="RU" sponsor="Uralunicom, CJSC" id="2010"  url2="http://speedtest.vashetv.ru/speedtest/upload.php" />
<server url="http://speedtest-eine.is74.ru/speedtest/upload.php" lat="55.1667" lon="61.4000" name="Chelyabinsk" country="Russian Federation" cc="RU" sponsor="JSC Intersvyaz" id="2557"  url2="http://speedtest-zwei.is74.ru/speedtest/upload.php" />
<server url="http://chkv-speedtest.rialcom.ru/speedtest/upload.php" lat="55.1481" lon="37.4769" name="Chehov" country="Russian Federation" cc="RU" sponsor="CJSC RialCom" id="2208"  url2="http://speedtest01.rialcom.ru/speedtest/upload.php" />
<server url="http://speedtest-kopeysk-eine.is74.ru/speedtest/upload.php" lat="55.1167" lon="61.6500" name="Kopeysk" country="Russian Federation" cc="RU" sponsor="JSC Intersvyaz" id="2778"  url2="http://speedtest-kopeysk-zwei.is74.ru/speedtest/upload.php" />
<server url="http://st.kopnet.ru/speedtest/upload.php" lat="55.1167" lon="61.6500" name="Kopeysk" country="Russian Federation" cc="RU" sponsor="Insit Ltd" id="3554"  url2="http://st2.kopnet.ru/speedtest/upload.php" />
<server url="http://speedtest.ekran39.ru/speedtest/upload.php" lat="55.0833" lon="21.8833" name="Sovetsk" country="Russia" cc="RU" sponsor="CJSC Ekran" id="2162"  url2="http://speedtest2.ekran39.ru/speedtest/upload.php" />
<server url="http://speedtest.colomna.net/speedtest/upload.php" lat="55.0833" lon="38.7833" name="Kolomna" country="Russian Federation" cc="RU" sponsor="JSC Kolomna-Sviaz TV" id="1126"  />
<server url="http://speed.skat-miass.ru/speedtest/upload.php" lat="55.0450" lon="60.1083" name="Miass" country="Russian Federation" cc="RU" sponsor="SKAT Ltd." id="3035"  url2="http://speedtest.skat-miass.ru/speedtest/upload.php" />
<server url="http://speed.skat-satka.ru/speedtest/upload.php" lat="55.0425" lon="59.0400" name="Satka" country="Russia Federation" cc="RU" sponsor="SKAT Ltd." id="2793"  url2="http://speedtest.skat-satka.ru/speedtest/upload.php" />
<server url="http://speedtest.miass.multinex.ru/speedtest/upload.php" lat="55.0000" lon="60.1000" name="Miass" country="Russian Federation" cc="RU" sponsor="MTS" id="1867"  url2="http://speedtest2.miass.multinex.ru/speedtest/upload.php" />
<server url="http://speedtest-miass-eine.is74.ru/speedtest/upload.php" lat="55.0000" lon="60.1000" name="Miass" country="Russian Federation" cc="RU" sponsor="JSC Intersvyaz" id="2722"  url2="http://speedtest-miass-zwei.is74.ru/speedtest/upload.php" />
<server url="http://speedtest.megafonsib.ru/speedtest/upload.php" lat="55.0000" lon="82.0000" name="Novosibirsk" country="Russian Federation" cc="RU" sponsor="Megafon" id="1792"  url2="http://83.149.50.85/speedtest/upload.php" />
<server url="http://speedtest.novosibirsk.u-disk.ru/speedtest/upload.php" lat="55.0000" lon="82.0000" name="Novosibirsk" country="Russian Federation" cc="RU" sponsor="Rostelecom" id="3296"  url2="http://speedtest2.novosibirsk.u-disk.ru/speedtest/upload.php" />
<server url="http://speedtest.myttk.ru/speedtest/upload.php" lat="55.0000" lon="82.0000" name="Novosibirsk" country="Russian Federation" cc="RU" sponsor="JSC Zap-Sib TransTeleCom" id="1823"  url2="http://80.89.150.78/speedtest/upload.php" />
<server url="http://speedtest.nsk.ertelecom.ru/speedtest/upload.php" lat="55.0000" lon="82.0000" name="Novosibirsk" country="Russian Federation" cc="RU" sponsor="DOM.RU" id="2696"  url2="http://st.nsk.ertelecom.ru/speedtest/upload.php" />
<server url="http://www.nwewn.com/mini/speedtest/upload.php" lat="54.9958" lon="-7.3074" name="Derry" country="Northern Ireland" cc="GB" sponsor="North West Electronics" id="1144"  url2="http://78.155.250.130/mini/speedtest/upload.php" />
<server url="http://speedtest.omsk.ertelecom.ru/speedtest/upload.php" lat="54.9833" lon="73.3667" name="Omsk" country="Russian Federation" cc="RU" sponsor="DOM.RU" id="2695"  url2="http://st.omsk.ertelecom.ru/speedtest/upload.php" />
<server url="http://speedtest.omkc.ru/speedtest/upload.php" lat="54.9833" lon="73.3667" name="Omsk" country="Russian Federation" cc="RU" sponsor="Omsk-IX" id="1351"  url2="http://217.25.208.35/speedtest/upload.php" />
<server url="http://speed-omk.myttk.ru/speedtest/upload.php" lat="54.9833" lon="73.3667" name="Omsk" country="Russian Federation" cc="RU" sponsor="JSC Zap-Sib TransTeleCom" id="1830"  url2="http://80.89.158.50/speedtest/upload.php" />
<server url="http://speedtest.meganet.lt/speedtest/speedtest/upload.php" lat="54.9000" lon="23.9333" name="Kaunas" country="Lithuania" cc="LT" sponsor="DOKEDA" id="1050"  url2="http://88.222.0.7/speedtest/speedtest/upload.php" />
<server url="http://speed.zebra.lt/speedtest/upload.php" lat="54.9000" lon="23.9333" name="Kaunas" country="Lithuania" cc="LT" sponsor="TEO LT, AB" id="1437"  url2="http://81.7.127.234/speedtest/upload.php" />
<server url="http://speedtest.stupino.su/speedtest/upload.php" lat="54.8942" lon="38.0841" name="Stupino" country="Russian Federation" cc="RU" sponsor="SKS Telecom" id="3210"  url2="http://st.stupino.su/speedtest/upload.php" />
<server url="http://esilnet.com/speedtest/speedtest/upload.php" lat="54.8833" lon="69.1667" name="Petropavlovsk" country="Kazakhstan" cc="KZ" sponsor="EsilNet" id="2991"  url2="http://esil-ktv.kz/speedtest/speedtest/upload.php" />
<server url="http://speedtest1.ktv-sk.com/speedtest/upload.php" lat="54.8833" lon="69.1667" name="Petropavlovsk" country="Kazakhstan" cc="KZ" sponsor="LLP Asket" id="2035"  url2="http://speedtest2.ktv-sk.com/speedtest/upload.php" />
<server url="http://speedtest.smolensk.u-disk.ru/speedtest/upload.php" lat="54.7833" lon="32.0500" name="Smolensk" country="Russian Federation" cc="RU" sponsor="Rostelecom" id="3263"  url2="http://speedtest2.smolensk.u-disk.ru/speedtest/upload.php" />
<server url="http://speedtest.smoltelecom.ru/speedtest/upload.php" lat="54.7833" lon="32.0500" name="Smolensk" country="Russian Federation" cc="RU" sponsor="Smoltelecom LLC" id="1988"  url2="http://ppcmetr.smoltelecom.ru/speedtest/upload.php" />
<server url="http://speedtest1.smolensk.comstar-r.ru/speedtest/upload.php" lat="54.7811" lon="32.0489" name="Smolensk" country="Russian Federation" cc="RU" sponsor="MTS" id="1891"  url2="http://speedtest2.smolensk.comstar-r.ru/speedtest/upload.php" />
<server url="http://v.ufanet.ru/speedtest/upload.php" lat="54.7500" lon="55.9667" name="Ufa" country="Russian Federation" cc="RU" sponsor="OJSC Ufanet" id="3238"  url2="http://speedtest.ufanet.ru/speedtest/upload.php" />
<server url="http://speedtest.bashtel.ru/speedtest/speedtest/upload.php" lat="54.7500" lon="55.9667" name="Ufa" country="Russian Federation" cc="RU" sponsor="Bashinformsvyaz" id="2753"  url2="http://83.174.193.213/speedtest/speedtest/upload.php" />
<server url="http://speed.ufa.ru/speedtest/upload.php" lat="54.7500" lon="55.9667" name="Ufa" country="Russian Federation" cc="RU" sponsor="NetTrans" id="2011"  url2="http://speed.nettrans.ru/speedtest/upload.php" />
<server url="http://speedtest.ufa.ertelecom.ru/speedtest/upload.php" lat="54.7500" lon="55.9667" name="Ufa" country="Russian Federation" cc="RU" sponsor="DOM.RU" id="2729"  url2="http://st.ufa.ertelecom.ru/speedtest/upload.php" />
<server url="http://speedtest.kaliningrad.u-disk.ru/speedtest/upload.php" lat="54.7167" lon="20.5167" name="Kaliningrad" country="Russian Federation" cc="RU" sponsor="Rostelecom" id="2598"  url2="http://speedtest2.kaliningrad.u-disk.ru/speedtest/upload.php" />
<server url="http://speedtest.tis-dialog.ru/speedtest/upload.php" lat="54.7167" lon="20.5167" name="Kaliningrad" country="Russian Federation" cc="RU" sponsor="Tis-Dialog" id="1352"  />
<server url="http://speedtest.bite.lt/speedtest/upload.php" lat="54.6833" lon="25.2833" name="Vilnius" country="Lithuania" cc="LT" sponsor="UAB BITE LIETUVA" id="2548"  url2="http://213.226.131.167/speedtest/upload.php" />
<server url="http://5.20.0.99/speedtest/upload.php" lat="54.6833" lon="25.2833" name="Vilnius" country="Lithuania" cc="LT" sponsor="UAB Cgates" id="3058"  url2="http://5.20.0.100/speedtest/upload.php" />
<server url="http://speedtest.skynet.lt/speedtest/upload.php" lat="54.6833" lon="25.2833" name="Vilnius" country="Lithuania" cc="LT" sponsor="Penki Kontinentai" id="1728"  url2="http://speedtest2.skynet.lt/speedtest/upload.php" />
<server url="http://speed.zebra.lt/mini/speedtest/upload.php" lat="54.6833" lon="25.2833" name="Vilnius" country="Lithuania" cc="LT" sponsor="TEO LT" id="1302"  url2="http://81.7.127.234/speedtest/upload.php" />
<server url="http://test.lenkuz.ru/speedtest/upload.php" lat="54.6575" lon="86.1617" name="Leninsk-Kuznetsky" country="Russian Federation" cc="RU" sponsor="Telekom" id="2028"  />
<server url="http://speedtest1.ryazan.comstar-r.ru/speedtest/upload.php" lat="54.6167" lon="39.7333" name="Ryazan" country="Russian Federation" cc="RU" sponsor="MTS" id="1910"  url2="http://89.106.192.35/speedtest/upload.php" />
<server url="http://speedtest.ryazan.ertelecom.ru/speedtest/upload.php" lat="54.6167" lon="39.7333" name="Ryazan" country="Russian Federation" cc="RU" sponsor="DOM.RU" id="2691"  url2="http://st.ryazan.ertelecom.ru/speedtest/upload.php" />
<server url="http://speedtest.ryazan.u-disk.ru/speedtest/upload.php" lat="54.6167" lon="39.7333" name="Ryazan" country="Russian Federation" cc="RU" sponsor="Rostelecom" id="3479"  url2="http://speedtest2.ryazan.u-disk.ru/speedtest/upload.php" />
<server url="http://speedtest.westcall-rzn.ru/speedtest/upload.php" lat="54.6167" lon="39.7333" name="Ryazan" country="Russian Federation" cc="RU" sponsor="Westcall Ryazan" id="2944"  url2="http://sp.westcall-rzn.ru/speedtest/upload.php" />
<server url="http://st1.tkchopin.pl/speedtest/upload.php" lat="54.6000" lon="18.2333" name="Wejherowo" country="Poland" cc="PL" sponsor="TK Chopin" id="2371"  url2="http://st2.tkchopin.pl/speedtest/upload.php" />
<server url="http://speedtest.kaluga.u-disk.ru/speedtest/upload.php" lat="54.5333" lon="36.2667" name="Kaluga" country="Russian Federation" cc="RU" sponsor="Rostelecom" id="3521"  url2="http://speedtest2.kaluga.u-disk.ru/speedtest/upload.php" />
<server url="http://speedtest.maxnet.org.pl/speedtest/upload.php" lat="54.5000" lon="18.5500" name="Gdynia" country="Poland" cc="PL" sponsor="Maxnet" id="3574"  url2="http://speedtest.maxnet.net.pl/speedtest/upload.php" />
<server url="http://web.infoseka.lt/tst/speedtest/upload.php" lat="54.4000" lon="24.0500" name="Alytus" country="Lithuania" cc="LT" sponsor="Infoseka" id="387"  url2="http://pserver.infoseka.lt/tst/speedtest/upload.php" />
<server url="http://speedtest.biall.net.pl/speedtest/upload.php" lat="54.3500" lon="18.6667" name="Gdansk" country="Poland" cc="PL" sponsor="BIALL-NET Sp. z o.o." id="3412"  url2="http://speedtest.tx.pl/speedtest/upload.php" />
<server url="http://speedtest.ulsk.ertelecom.ru/speedtest/upload.php" lat="54.3249" lon="48.3852" name="Ulyanovsk" country="Russian Federation" cc="RU" sponsor="DOM.RU" id="2688"  url2="http://st.ulsk.ertelecom.ru/speedtest/upload.php" />
<server url="http://speed.mv.ru/speedtest/upload.php" lat="54.3249" lon="48.3852" name="Ulyanovsk" country="Russian Federation" cc="RU" sponsor="Rostelecom" id="991"  url2="http://89.239.139.131/speedtest/upload.php" />
<server url="http://speed.netroad.ru/speedtest/upload.php" lat="54.3249" lon="48.3852" name="Ulyanovsk" country="Russian Federation" cc="RU" sponsor="MTS" id="3369"  url2="http://speed2.netroad.ru/speedtest/upload.php" />
<server url="http://www2.citytel.net/speedtest/upload.php" lat="54.3122" lon="-130.3271" name="Prince Rupert, BC" country="Canada" cc="CA" sponsor="CityWest Cable and Tele" id="577"  url2="http://209.145.111.34/speedtest/upload.php" />
<server url="http://speedtest.tkk.net.pl/speedtest/upload.php" lat="54.2000" lon="16.1833" name="Koszalin" country="Poland" cc="PL" sponsor="Tele Kablowa Koszalin" id="994"  />
<server url="http://speedtest.tula.ertelecom.ru/speedtest/upload.php" lat="54.2000" lon="37.6167" name="Tula" country="Russian Federation" cc="RU" sponsor="DOM.RU" id="2661"  url2="http://st.tula.ertelecom.ru/speedtest/upload.php" />
<server url="http://speedtest.tula.u-disk.ru/speedtest/upload.php" lat="54.2000" lon="37.6167" name="Tula" country="Russian Federation" cc="RU" sponsor="Rostelecom" id="3297"  url2="http://speedtest2.tula.u-disk.ru/speedtest/upload.php" />
<server url="http://www.radionet-t.ru/speedtest/speedtest/upload.php" lat="54.2000" lon="37.6167" name="Tula" country="Russian Federation" cc="RU" sponsor="Radionet-T" id="3080"  url2="http://tulats.ru/speedtest/speedtest/upload.php" />
<server url="http://speedtest.tula.u-disk.ru/speedtest/upload.php" lat="54.2000" lon="54.2000" name="Tula" country="Russian Federation" cc="RU" sponsor="Rostelecom" id="3266"  url2="http://speedtest2.tula.u-disk.ru/speedtest/upload.php" />
<server url="http://ktv-net.ru/speedtest/upload.php" lat="54.1838" lon="45.1749" name="Saransk" country="Russian Federation" cc="RU" sponsor="Contact-TV inc." id="2973"  url2="http://speed.hosting.contact-tv.ru/speedtest/upload.php" />
<server url="http://speedtest.tkk.pl/speedtest/upload.php" lat="54.1833" lon="15.5833" name="Kolobrzeg" country="Poland" cc="PL" sponsor="Telewizja Kablowa" id="1500"  url2="http://194.24.244.8/speedtest/upload.php" />
<server url="http://speedtest.dartel.ru/upload.php" lat="54.1833" lon="45.1833" name="Saransk" country="Russian Federation" cc="RU" sponsor="DARTEL" id="2677"  />
<server url="http://speedtest1.wimanx.com/speedtest/upload.php" lat="54.1675" lon="-4.4824" name="Douglas" country="Isle of Man" cc="IM" sponsor="Wi-Manx Limited" id="3183"  url2="http://speedtest2.wimanx.com/speedtest/upload.php" />
<server url="http://62.87.168.22/speedtest/upload.php" lat="54.1667" lon="19.4000" name="Elblag" country="Poland" cc="PL" sponsor="Telefonia Dialog S.A." id="2082"  />
<server url="http://www.lannet.pl/mini/speedtest/upload.php" lat="54.1167" lon="20.5833" name="Lidzbark Warmiński" country="Poland" cc="PL" sponsor="Lannet" id="3494"  url2="http://www.lanet.pl/mini/speedtest/upload.php" />
<server url="http://speedtest1.rgtsparus.ru/speedtest/upload.php" lat="54.0667" lon="44.9333" name="Ruzayevka" country="Russian Federation" cc="RU" sponsor="OOO RGTS &quot;Parus&quot;" id="2744"  url2="http://speedtest2.rgtsparus.ru/speedtest/upload.php" />
<server url="http://84.19.126.16/speedtest/upload.php" lat="54.0640" lon="-2.8786" name="Morecambe" country="Great Britain" cc="GB" sponsor="Smallworld Media" id="1518"  url2="http://morspeedtest.smallworldcable.com/speedtest/upload.php" />
<server url="http://speedtest.luns.net.uk/speedtest/upload.php" lat="54.0470" lon="-2.8010" name="Lancaster" country="Great Britain" cc="GB" sponsor="LUNS Ltd." id="2048"  url2="http://speedtest2.luns.net.uk/speedtest/upload.php" />
<server url="http://speedtest.net1.ie/speedtest/upload.php" lat="54.0070" lon="-6.4049" name="Dundalk" country="Ireland" cc="IE" sponsor="Adelphi Net1 Ltd" id="1459"  />
<server url="http://speedtest.btk.net.pl/speedtest/upload.php" lat="54.0000" lon="15.9833" name="Bialogard" country="Poland" cc="PL" sponsor="BSM" id="3396"  url2="http://speedtest2.btk.net.pl/speedtest/upload.php" />
<server url="http://www.invictel.co.uk/speedtest/upload.php" lat="53.9620" lon="-2.0170" name="Skipton" country="Great Britain" cc="GB" sponsor="Invictel Ltd" id="1948"  />
<server url="http://speed.roslavl-sp.ru/speedtest/speedtest/upload.php" lat="53.9528" lon="32.8639" name="Roslavl" country="Russian Federation" cc="RU" sponsor="Ltd. Server-plus" id="3181"  url2="http://speed1.roslavl-sp.ru/speedtest/speedtest/upload.php" />
<server url="http://speedtest.uznam.net.pl/speedtest/upload.php" lat="53.9091" lon="14.2400" name="Swinoujscie" country="Poland" cc="PL" sponsor="AC Systemy Komputerowe" id="2950"  url2="http://speedtest.acsystemy.pl/speedtest/upload.php" />
<server url="http://test.byfly.by/speedtest/upload.php" lat="53.9000" lon="27.5667" name="Minsk" country="Belarus" cc="BY" sponsor="MGTS" id="1119"  url2="http://86.57.151.26/speedtest/upload.php" />
<server url="http://test.flynet.by/speedtest/upload.php" lat="53.9000" lon="27.5667" name="Minsk" country="Belarus" cc="BY" sponsor="FLYNET.BY" id="3326"  />
<server url="http://speedtest.csb-net.de/speedtest/upload.php" lat="53.8167" lon="10.3667" name="Bad Oldesloe" country="Germany" cc="DE" sponsor="C&amp;S Breitband GmbH" id="3537"  url2="http://speedtest.vsm.sh/speedtest/upload.php" />
<server url="http://leeds-uk-speed1.firstnetserv.co.uk/speedtest/upload.php" lat="53.8100" lon="-1.5500" name="Leeds" country="Great Britain" cc="GB" sponsor="Black Fibre Networks Ltd" id="2363"  url2="http://leeds-uk-speed2.firstnetserv.co.uk/speedtest/upload.php" />
<server url="http://speedtest1.danceukradio.co.uk/speedtest/upload.php" lat="53.8100" lon="-1.5500" name="Leeds" country="Great Britain" cc="GB" sponsor="DanceUKRadio" id="2781"  url2="http://speedtest2.danceukradio.co.uk/speedtest/upload.php" />
<server url="http://speedtest.blakeway.me.uk/speedtest/upload.aspx" lat="53.8100" lon="-1.5500" name="Leeds" country="Great Britain" cc="GB" sponsor="Webfusion" id="3519"  url2="http://speedtest.haptech.co.uk/speedtest/upload.aspx" />
<server url="http://speedtest.kisiek.net/speedtest/upload.php" lat="53.7789" lon="20.4801" name="Olsztyn" country="Poland" cc="PL" sponsor="Kisiek.net" id="3024"  url2="http://www.s1.speedtest.kisiek.net/speedtest/upload.php" />
<server url="http://speedtest.boundlessbroadband.net/speedtest/upload.php" lat="53.7590" lon="-2.6990" name="Preston" country="Great Britain" cc="GB" sponsor="Boundless Comms" id="2262"  url2="http://speedtest2.boundlessbroadband.net/speedtest/upload.php" />
<server url="http://speed-nkz.myttk.ru/speedtest/upload.php" lat="53.7500" lon="87.1000" name="Novokuznetsk" country="Russian Federation" cc="RU" sponsor="JSC Zap-Sib TransTeleCom" id="1831"  />
<server url="http://speedtest.nvkz.comstar-r.ru/speedtest/upload.php" lat="53.7500" lon="87.1167" name="Novokuznetsk" country="Russian Federation" cc="RU" sponsor="MTS Novokuznetsk" id="2652"  url2="http://speedtest2.nvkz.comstar-r.ru/speedtest/upload.php" />
<server url="http://speedtest.hutor.ru/speedtest/upload.php" lat="53.7500" lon="87.1167" name="Novokuznetsk" country="Russian Federation" cc="RU" sponsor="RDTC" id="1661"  url2="http://62.231.190.47/speedtest/upload.php" />
<server url="http://www.speedtest.karoo.co.uk/speedtest/upload.php" lat="53.7443" lon="-0.3325" name="Kingston Upon Hull" country="Great Britain" cc="GB" sponsor="Kingston Communications" id="1426"  url2="http://www.speedtest1.karoo.co.uk/speedtest/upload.php" />
<server url="http://speed.intertelecom.org/speedtest/upload.php" lat="53.7156" lon="91.4292" name="Abakan" country="Russian Federation" cc="RU" sponsor="Intertelecom Ltd" id="3087"  url2="http://194.28.205.124/speedtest/upload.php" />
<server url="http://st-zarinsk.dianet.info/speedtest/upload.php" lat="53.7089" lon="84.9672" name="Zarinsk" country="Russian Federation" cc="RU" sponsor="Dianet" id="1535"  />
<server url="http://213.209.117.26/speedtest/upload.php" lat="53.7064" lon="10.0103" name="Norderstedt" country="Germany" cc="DE" sponsor="wilhelm.tel GmbH" id="1213"  />
<server url="http://speedtest.rikt.ru/speedtest/upload.php" lat="53.6833" lon="88.0500" name="Mezhdurechensk" country="Russian Federation" cc="RU" sponsor="OAO &quot;RIKT&quot;" id="3277"  url2="http://speedtest2.rikt.ru/speedtest/upload.php" />
<server url="http://speedtest2.daspc.de/speedtest/upload.php" lat="53.6333" lon="11.4167" name="Schwerin" country="Germany" cc="DE" sponsor="BillHOST.de IT Systeme" id="1516"  />
<server url="http://1str.net/mini1/speedtest/upload.php" lat="53.6333" lon="55.9500" name="Sterlitamak" country="Russian Federation" cc="RU" sponsor="1str" id="2083"  url2="http://speedtest.1str.net/speedtest/upload.php" />
<server url="http://speedtest.ed.nwtel.ca/speedtest/upload.php" lat="53.5667" lon="-113.5167" name="Edmonton, AB" country="Canada" cc="CA" sponsor="Northwestel" id="2575"  url2="http://198.135.216.54/speedtest/upload.php" />
<server url="http://edmonton.speedtest.telus.com/speedtest/upload.jsp" lat="53.5667" lon="-113.5167" name="Edmonton, AB" country="Canada" cc="CA" sponsor="Telus" id="3050"  />
<server url="http://speedtest.tera-byte.com/speedtest/upload.php" lat="53.5667" lon="-113.5167" name="Edmonton, AB" country="Canada" cc="CA" sponsor="Tera-byte Dot Com Inc" id="1051"  url2="http://216.234.191.173/speedtest/upload.php" />
<server url="http://speedtest1.telbiur.com.pl/speedtest/upload.php" lat="53.5667" lon="20.9833" name="Szczytno" country="Poland" cc="PL" sponsor="Telbiur Hurt-Detal-Usługi Marzena Dołżańska" id="3507"  url2="http://speedtest2.telbiur.com.pl/speedtest/upload.php" />
<server url="http://speedtest.studiofunk.de/speedtest/upload.php" lat="53.5653" lon="10.0014" name="Hamburg" country="Germany" cc="DE" sponsor="Studio Funk GmbH &amp; Co. KG" id="2398"  url2="http://speedtest2.studiofunk.de/speedtest/upload.php" />
<server url="http://edmonton.westnet.ca/speedtest/upload.php" lat="53.5472" lon="-113.5006" name="Edmonton, AB" country="Canada" cc="CA" sponsor="WestNet City Wi-Fi" id="3561"  url2="http://edmonton-s.westnet.ca/speedtest/upload.php" />
<server url="http://speedtest.tlt.100megabit.ru/speedtest/upload.php" lat="53.4833" lon="49.5167" name="Togliatti" country="Russian Federation" cc="RU" sponsor="АИСТ" id="3604"  url2="http://speedtest.tlt.aist.net.ru/speedtest/upload.php" host="speedtest.tlt.100megabit.ru:8080" />
<server url="http://speedtest.tnp.net.uk/speedtest/upload.php" lat="53.4800" lon="-2.2400" name="Manchester" country="Great Britain" cc="GB" sponsor="TNP Ltd." id="3504"  url2="http://speedtest2.tnp.net.uk/speedtest/upload.php" />
<server url="http://speedtest1.magnitogorsk.multinex.ru/speedtest/upload.php" lat="53.4593" lon="59.0826" name="Magnitogorsk" country="Russian Federation" cc="RU" sponsor="MTS" id="1892"  url2="http://speedtest2.magnitogorsk.multinex.ru/speedtest/upload.php" />
<server url="http://speed.smsnet.pl/speedtest/upload.php" lat="53.4395" lon="14.5939" name="Szczecin" country="Poland" cc="PL" sponsor="SMSNET" id="2976"  url2="http://speedtest.smsnet.pl/speedtest/upload.php" />
<server url="http://speedtest.svtk.ru/speedtest/upload.php" lat="53.4186" lon="59.0472" name="Magnitogorsk" country="Russian Federation" cc="RU" sponsor="JSC SVYAZTELEKOM" id="2806"  url2="http://speedtest.magnitka.ru/speedtest/upload.php" />
<server url="http://www.speedtest.wzieu.pl/speedtest/upload.php" lat="53.4167" lon="14.5833" name="Szczecin" country="Poland" cc="PL" sponsor="WZiEU US  MAN Szczecin" id="1481"  />
<server url="http://speedtest-livpola1.firstnetserv.co.uk/speedtest/upload.php" lat="53.4000" lon="-3.0000" name="Liverpool" country="Great Britain" cc="GB" sponsor="Black Fibre Networks Ltd" id="2362"  url2="http://speedtest-livpola2.firstnetserv.co.uk/speedtest/upload.php" />
<server url="http://speedtest.net-komp.net.pl/speedtest/upload.php" lat="53.4000" lon="21.9333" name="Kolno" country="Poland" cc="PL" sponsor="NET-KOMP" id="2568"  url2="http://speedtest2.net-komp.net.pl/speedtest/upload.php" />
<server url="http://sta.idealan.pl/speedtest/upload.php" lat="53.4000" lon="23.5000" name="Sokółka" country="Poland" cc="PL" sponsor="IdeaLAN" id="3424"  url2="http://stb.idealan.pl/speedtest/upload.php" />
<server url="http://speedtest.mgn.ertelecom.ru/speedtest/upload.php" lat="53.3833" lon="59.0333" name="Magnitogorsk" country="Russian Federation" cc="RU" sponsor="DOM.RU" id="2699"  url2="http://st.mgn.ertelecom.ru/speedtest/upload.php" />
<server url="http://speedtest-magnitogorsk-eine.is74.ru/speedtest/upload.php" lat="53.3833" lon="59.0333" name="Magnitogorsk" country="Russian Federation" cc="RU" sponsor="JSC Intersvyaz" id="2721"  url2="http://speedtest-magnitogorsk-zwei.is74.ru/speedtest/upload.php" />
<server url="http://speedtest.mgn.ru/speedtest/upload.php" lat="53.3833" lon="59.0333" name="Magnitogorsk" country="Russian Federation" cc="RU" sponsor="Maginfo" id="2037"  url2="http://st.mgn.ru/speedtest/upload.php" />
<server url="http://speedtest.barnaul.u-disk.ru/speedtest/upload.php" lat="53.3579" lon="83.7594" name="Barnaul" country="Russian Federation" cc="RU" sponsor="Rostelecom" id="3552"  url2="http://speedtest2.barnaul.u-disk.ru/speedtest/upload.php" />
<server url="http://st.dianet.info/speedtest/upload.php" lat="53.3579" lon="83.7594" name="Barnaul" country="Russian Federation" cc="RU" sponsor="Dianet" id="1550"  url2="http://st-barnaul.dianet.info/speedtest/upload.php" />
<server url="http://speed-brn.myttk.ru/speedtest/upload.php" lat="53.3579" lon="83.7594" name="Barnaul" country="Russian Federation" cc="RU" sponsor="JSC Zap-Sib TransTeleCom" id="1833"  />
<server url="http://pingtest.eircom.net/speedtest/upload.php" lat="53.3478" lon="-6.2597" name="Dublin" country="Ireland" cc="IE" sponsor="Eircom" id="1532"  url2="http://86.43.35.76/speedtest/upload.php" />
<server url="http://speedtest.vodafone.ie/speedtest/upload.php" lat="53.3478" lon="-6.2597" name="Dublin" country="Ireland" cc="IE" sponsor="Vodafone IE" id="1756"  url2="http://speedtest2.vodafone.ie/speedtest/upload.php" />
<server url="http://speedtest.digiweb.ie/speedtest/upload.php" lat="53.3478" lon="-6.2597" name="Dublin" country="Ireland" cc="IE" sponsor="Digiweb" id="1041"  url2="http://89.234.64.80/speedtest/upload.php" />
<server url="http://noc.x-com.pl/mini/speedtest/upload.php" lat="53.3333" lon="15.0500" name="Stargard Szczecinski" country="Poland" cc="PL" sponsor="X-Com Partners" id="2209"  url2="http://www.noc.x-com.pl/mini/speedtest/upload.php" />
<server url="http://speedtest.barnaul.ertelecom.ru/speedtest/upload.php" lat="53.2908" lon="83.6478" name="Barnaul" country="Russian Federation" cc="RU" sponsor="DOM.RU" id="2730"  url2="http://st.barnaul.ertelecom.ru/speedtest/upload.php" />
<server url="http://speedtest.airwire.ie/speedtest/upload.php" lat="53.2720" lon="-9.0489" name="Galway" country="Ireland" cc="IE" sponsor="Airwire" id="748"  url2="http://195.222.111.223/speedtest/upload.php" />
<server url="http://speedtest.bryansk.u-disk.ru/speedtest/upload.php" lat="53.2667" lon="34.4000" name="Bryansk" country="Russian Federation" cc="RU" sponsor="Rostelecom" id="3478"  url2="http://speedtest2.bryansk.u-disk.ru/speedtest/upload.php" />
<server url="http://speedtest.bks-tv.ru/speedtest/upload.php" lat="53.2667" lon="34.4000" name="Bryansk" country="Russian Federation" cc="RU" sponsor="Bryansk Cable Networks" id="3053"  url2="http://speedtest2.bks-tv.ru/speedtest/upload.php" />
<server url="http://speedtest.bryansk.ertelecom.ru/speedtest/upload.php" lat="53.2667" lon="34.4000" name="Bryansk" country="Russian Federation" cc="RU" sponsor="DOM.RU" id="2707"  url2="http://st.bryansk.ertelecom.ru/speedtest/upload.php" />
<server url="http://speedtest1.ria-link.ru/speedtest/upload.php" lat="53.2667" lon="34.4000" name="Bryansk" country="Russian Federation" cc="RU" sponsor="RIA-link" id="2247"  />
<server url="http://speedtest.haidagwaii.net/speedtest/upload.php" lat="53.2544" lon="-132.0944" name="Queen Charlotte, BC" country="Canada" cc="CA" sponsor="qcislands net Ltd" id="2346"  url2="http://speedtest2.haidagwaii.net/speedtest/upload.php" />
<server url="http://speedtest.samara.u-disk.ru/speedtest/upload.php" lat="53.2333" lon="50.1667" name="Samara" country="Russian Federation" cc="RU" sponsor="Rostelecom" id="2603"  />
<server url="http://speedtest.samara.ertelecom.ru/speedtest/upload.php" lat="53.2333" lon="50.1667" name="Samara" country="Russian Federation" cc="RU" sponsor="DOM.RU" id="2718"  url2="http://st.samara.ertelecom.ru/speedtest/upload.php" />
<server url="http://speedtest.samara.comstar.ru/speedtest/upload.php" lat="53.2333" lon="50.1667" name="Samara" country="Russian Federation" cc="RU" sponsor="MTS" id="2145"  url2="http://speedtest1.samara.comstar.ru/speedtest/upload.php" />
<server url="http://78.25.76.34/speedtest/speedtest/upload.asp" lat="53.2333" lon="50.1667" name="Samara" country="Russian Federation" cc="RU" sponsor="OJSC MegaFon" id="1401"  />
<server url="http://test.samara-ttk.ru/speedtest/upload.php" lat="53.2333" lon="50.1667" name="Samara" country="Russian Federation" cc="RU" sponsor="Samara-ТТК" id="3256"  url2="http://localtest.samara-ttk.ru/speedtest/upload.php" />
<server url="http://speedtest-net-1.manc.speedtest.uk.net/speedtest/upload.php" lat="53.2301" lon="-1.2801" name="Sheffield" country="Great Britain" cc="GB" sponsor="XILO" id="1365"  url2="http://speedtest-net-2.manc.speedtest.uk.net/speedtest/upload.php" />
<server url="http://speedtest.cj2.nl/speedtest/upload.php" lat="53.2178" lon="6.5664" name="Groningen" country="Netherlands" cc="NL" sponsor="CJ2 Hosting &amp; Development" id="3200"  url2="http://snelheid.cj2.nl/speedtest/upload.php" />
<server url="http://speedtest1.pnz.ru/speedtest/upload.php" lat="53.2082" lon="44.9957" name="Penza" country="Russian Federation" cc="RU" sponsor="MTS" id="1920"  url2="http://speedtest2.pnz.ru/speedtest/upload.php" />
<server url="http://speedtest.penza.ertelecom.ru/speedtest/upload.php" lat="53.2000" lon="45.0167" name="Penza" country="Russian Federation" cc="RU" sponsor="DOM.RU" id="2692"  url2="http://st.penza.ertelecom.ru/speedtest/upload.php" />
<server url="http://kos-st-01.kcell.kz/speedtest/upload.php" lat="53.2000" lon="63.6333" name="Kostanay" country="Kazakhstan" cc="KZ" sponsor="KCell JSC" id="3534"  url2="http://kos-st-02.kcell.kz/speedtest/upload.php" />
<server url="http://speedtest1.allnet.kz/mini/speedtest/upload.php" lat="53.2000" lon="63.6333" name="Kostanay" country="Kazakhstan" cc="KZ" sponsor="TOO ALLNET" id="2930"  url2="http://speedtest2.allnet.kz/mini/speedtest/upload.php" />
<server url="http://www.isbm.pl/speedtest/upload.php" lat="53.1167" lon="18.0000" name="Bydgoszcz" country="Poland" cc="PL" sponsor="ISBM" id="378"  url2="http://isbm.pl/speedtest/upload.php" />
<server url="http://speedtest.koba.pl/speedtest/upload.php" lat="53.1167" lon="23.1500" name="Bialystok" country="Poland" cc="PL" sponsor="KoBa" id="1016"  />
<server url="http://www.skv-breedband.nl/speedtest/speedtest/upload.php" lat="53.1061" lon="6.8764" name="Veendam" country="Netherlands" cc="NL" sponsor="Netvisit BV" id="1476"  url2="http://skv-breedband.nl/speedtest/speedtest/upload.php" />
<server url="http://pomoc.petrus.com.pl/includes/speedtest/upload.php" lat="53.0154" lon="18.5994" name="Torun" country="Poland" cc="PL" sponsor="&quot;Petrus Polska sp. z o.o.&quot; S.K.A." id="2946"  url2="http://www.pomoc.petrus.com.pl/includes/speedtest/upload.php" />
<server url="http://noc.markomp.com.pl/speedtest/upload.php" lat="52.9833" lon="22.2500" name="Zambrow" country="Poland" cc="PL" sponsor="MARKOMP Marek Matejkowski" id="3368"  url2="http://www.markomp.com.pl/noc/speedtest/upload.php" />
<server url="http://speedtest1.rekom.ru/speedtest/upload.php" lat="52.9667" lon="36.0667" name="Orel" country="Russian Federation" cc="RU" sponsor="MTS" id="2144"  url2="http://speedtest2.rekom.ru/speedtest/upload.php" />
<server url="http://speedtest.orel.u-disk.ru/speedtest/upload.php" lat="52.9667" lon="36.0667" name="Orel" country="Russian Federation" cc="RU" sponsor="Rostelecom" id="3262"  url2="http://speedtest2.orel.u-disk.ru/speedtest/upload.php" />
<server url="http://orl1.bigspeedtest.netbynet.ru/speedtest/upload.php" lat="52.9667" lon="36.0667" name="Orel" country="Russian Federation" cc="RU" sponsor="Net By Net Holding LLC" id="3324"  url2="http://orl2.bigspeedtest.netbynet.ru/speedtest/upload.php" />
<server url="http://a.speedtest.orn.ru/speedtest/upload.php" lat="52.9667" lon="36.0667" name="Orel" country="Russian Federation" cc="RU" sponsor="JSC Resource-Sviaz" id="3286"  url2="http://b.speedtest.orn.ru/speedtest/upload.php" />
<server url="http://speedtest.k-nt.ru/speedtest/upload.php" lat="52.7667" lon="32.2333" name="Klintsy" country="Russian Federation" cc="RU" sponsor="OÜ &quot;New Technologies&quot;" id="3418"  url2="http://speedtest2.k-nt.ru/speedtest/upload.php" />
<server url="http://spd-tst-01.prokma.ru/speedtest/upload.php" lat="52.7167" lon="41.4167" name="Tambov" country="Russian Federation" cc="RU" sponsor="PROKMA-TELECOM JSC" id="2807"  url2="http://spd-tst-02.prokma.ru/speedtest/upload.php" />
<server url="http://speedtest.tambov.u-disk.ru/speedtest/upload.php" lat="52.7167" lon="41.4167" name="Tambov" country="Russian Federation" cc="RU" sponsor="Rostelecom" id="3264"  url2="http://speedtest2.tambov.u-disk.ru/speedtest/upload.php" />
<server url="http://speedtest.lanta-net.ru/speedtest/upload.php" lat="52.7167" lon="41.4167" name="Tambov" country="Russian Federation" cc="RU" sponsor="LanTa" id="1548"  url2="http://speedtest2.lanta-net.ru/speedtest/upload.php" />
<server url="http://roni.com.pl/speedtest/upload.php" lat="52.7068" lon="16.3844" name="Wronki" country="Poland" cc="PL" sponsor="RONI Wroniecka Telewizja Kablowa" id="2826"  url2="http://obrzycko.net/speedtest/upload.php" />
<server url="http://infkom.ru/speedtest/speedtest/upload.php" lat="52.7000" lon="58.6500" name="Sibay" country="Russian Federation" cc="RU" sponsor="OOO INFOKOM" id="2029"  url2="http://www.infkom.ru/speedtest/speedtest/upload.php" />
<server url="http://speedtest.fwi.ie/speedtest/upload.php" lat="52.6652" lon="-8.6238" name="Limerick" country="Ireland" cc="IE" sponsor="Fast Wireless Internet" id="802"  url2="http://89.18.64.20/speedtest/speedtest/upload.php" />
<server url="http://speedtest.a2b-internet.com/speedtest/upload.php" lat="52.6320" lon="4.7510" name="Alkmaar" country="Netherlands" cc="NL" sponsor="A2B Internet B.V." id="2042"  url2="http://speedtest-dhalk.a2b-internet.com/speedtest/upload.php" />
<server url="http://www.rwinternet.com/speedtest/speedtest/upload.php" lat="52.6283" lon="1.2967" name="Norwich" country="Great Britain" cc="GB" sponsor="RW Internet" id="2223"  url2="http://rwinternet.com/speedtest/speedtest/upload.php" />
<server url="http://speedtest.lis.su/speedtest/upload.php" lat="52.6000" lon="39.5667" name="Lipetsk" country="Russian Federation" cc="RU" sponsor="LIS" id="1543"  url2="http://91.198.46.133/speedtest/upload.php" />
<server url="http://speedtest.lipetsk.ertelecom.ru/speedtest/upload.php" lat="52.6000" lon="39.5667" name="Lipetsk" country="Russian Federation" cc="RU" sponsor="DOM.RU" id="2663"  url2="http://st.lipetsk.ertelecom.ru/speedtest/upload.php" />
<server url="http://lip1.bigspeedtest.netbynet.ru/speedtest/upload.php" lat="52.6000" lon="39.5667" name="Lipetsk" country="Russian Federation" cc="RU" sponsor="Net By Net Holding LLC" id="3304"  url2="http://lip2.bigspeedtest.netbynet.ru/speedtest/upload.php" />
<server url="http://speedtest.petrotel.pl/speedtest/upload.php" lat="52.5500" lon="19.7000" name="Plock" country="Poland" cc="PL" sponsor="Petrotel Sp. z o.o." id="3485"  url2="http://speedtest1.petrotel.pl/speedtest/upload.php" />
<server url="http://biysk.pro/speedtest/speedtest/upload.php" lat="52.5364" lon="85.2072" name="Biysk" country="Russian Federation" cc="RU" sponsor="Biysk Digital Network" id="3039"  url2="http://bcsbiysk.ru/speedtest/speedtest/upload.php" />
<server url="http://ooklaspeedtest.solcon.nl/speedtest/upload.php" lat="52.5333" lon="5.7167" name="Dronten" country="Netherlands" cc="NL" sponsor="Solcon" id="1747"  url2="http://ooklaspeedtest2.solcon.nl/speedtest/upload.php" />
<server url="http://www.elitegameservers.net/speedtest/upload.php" lat="52.5333" lon="5.7167" name="Dronten" country="Netherlands" cc="NL" sponsor="Elite Game Servers" id="3100"  url2="http://www.xgclan.com/speedtest/upload.php" />
<server url="http://www.trub.net.ru/speedtest/speedtest/upload.php" lat="52.5333" lon="33.7667" name="Trubchevsk" country="Russian Federation" cc="RU" sponsor="Satelcom-Service Ltd." id="3305"  url2="http://trubchevsk.pro/speedtest/speedtest/upload.php" />
<server url="http://speedtest1.ak.ber.netsign.net/speedtest/upload.php" lat="52.5233" lon="13.4127" name="Berlin" country="Germany" cc="DE" sponsor="Netsign GmbH" id="2292"  url2="http://speedtest2.ak.ber.netsign.net/speedtest/upload.php" />
<server url="http://speedtest.ipb.de/speedtest/upload.php" lat="52.5233" lon="13.4127" name="Berlin" country="Germany" cc="DE" sponsor="IPB" id="1475"  />
<server url="http://st-biysk.dianet.info/speedtest/upload.php" lat="52.5166" lon="85.1666" name="Biysk" country="Russian Federation" cc="RU" sponsor="Dianet" id="1549"  />
<server url="http://st-aleysk.dianet.info/speedtest/upload.php" lat="52.5000" lon="82.7833" name="Aleysk" country="Russian Federation" cc="RU" sponsor="Dianet" id="1527"  />
<server url="http://speedtest.datatechuk.com/speedtest/upload.aspx" lat="52.4796" lon="-1.9030" name="Birmingham" country="Great Britain" cc="GB" sponsor="Datatech UK Ltd" id="1149"  url2="http://speedtest.datatechuk.net/speedtest/upload.aspx" />
<server url="http://speedtest.miedzyrzecz.com.pl/speedtest/upload.php" lat="52.4333" lon="15.5833" name="Miedzyrzecz" country="Poland" cc="PL" sponsor="EXE Piotr Grenda" id="3598"  url2="http://speedtest2.miedzyrzecz.com.pl/speedtest/upload.php" host="speedtest.miedzyrzecz.com.pl:8080" />
<server url="http://speedtest.warwicknet.com/speedtest/upload.php" lat="52.4081" lon="-1.5106" name="Coventry" country="Great Britain" cc="GB" sponsor="Warwicknet Ltd." id="1153"  url2="http://speedtest2.warwicknet.com/speedtest/upload.php" />
<server url="http://speedtest.horyzont.net/speedtest/upload.php" lat="52.4000" lon="16.9167" name="Poznan" country="Poland" cc="PL" sponsor="Horyzont Technologie Internetowe" id="2776"  url2="http://speedtest.hti.pl/speedtest/upload.php" />
<server url="http://speedtest.hawetelekom.pl/speedtest/upload.php" lat="52.4000" lon="16.9167" name="Poznan" country="Poland" cc="PL" sponsor="HAWE Telekom Sp. z o.o." id="3528"  url2="http://speedtest2.hawetelekom.pl/speedtest/upload.php" />
<server url="http://speedtest.stayclose.eu/speedtest/upload.php" lat="52.3803" lon="4.6406" name="Haarlem" country="Netherlands" cc="NL" sponsor="StayClose B.V." id="1175"  />
<server url="http://speedtest.networking4all.net/speedtest/upload.php" lat="52.3700" lon="4.8900" name="Amsterdam" country="Netherlands" cc="NL" sponsor="Networking4all B.V." id="951"  url2="http://213.249.64.165/speedtest/upload.php" />
<server url="http://ams.speedtest.net/speedtest/upload.php" lat="52.3700" lon="4.8900" name="Amsterdam" country="Netherlands" cc="NL" sponsor="Ookla" id="2855"  url2="http://85.17.31.68/speedtest/upload.php" host="ams.speedtest.net:8080" />
<server url="http://anemahosting.com/speedtest/speedtest/upload.php" lat="52.3700" lon="4.8900" name="Amsterdam" country="Netherlands" cc="NL" sponsor="Anema Hosting" id="3576"  url2="http://anema-hosting.com/speedtest/speedtest/upload.php" host="anemahosting.com:8080" />
<server url="http://host1.speedtest.nforce.com/speedtest/upload.php" lat="52.3700" lon="4.8900" name="Amsterdam" country="Netherlands" cc="NL" sponsor="NFOrce Entertainment B.V." id="3386"  url2="http://host2.speedtest.nforce.com/speedtest/upload.php" />
<server url="http://speed.signaltv.net/st/speedtest/upload.php" lat="52.3333" lon="35.3667" name="Zheleznogorsk" country="Russian Federation" cc="RU" sponsor="Signal Service LLC" id="2236"  url2="http://speed.signalservis.net/st/speedtest/upload.php" />
<server url="http://tvk.smnt.pl/speed/speedtest/upload.php" lat="52.3167" lon="16.1500" name="Nowy Tomysl" country="Poland" cc="PL" sponsor="Spółdzielnia Mieszkaniowa w Nowym Tomyślu" id="2526"  url2="http://96-9.cpe.smnt.pl/drupal/speed/speedtest/upload.php" />
<server url="http://speedtest.ortel.ru/speedtest/upload.php" lat="52.3122" lon="104.2958" name="Irkutsk" country="Russian Federation" cc="RU" sponsor="JSC Orient-Telecom" id="2264"  url2="http://speedtest2.ortel.ru/speedtest/upload.php" />
<server url="http://speedtest.irkutsk.ertelecom.ru/speedtest/upload.php" lat="52.3122" lon="104.2958" name="Irkutsk" country="Russian Federation" cc="RU" sponsor="DOM.RU" id="2636"  url2="http://st.irkutsk.ertelecom.ru/speedtest/upload.php" />
<server url="http://speedtest.irk.ru/speedtest/upload.php" lat="52.3122" lon="104.2958" name="Irkutsk" country="Russian Federation" cc="RU" sponsor="Business Net Irkutsk" id="1000"  />
<server url="http://pav-st-01.kcell.kz/speedtest/upload.php" lat="52.3000" lon="76.9500" name="Pavlodar" country="Kazakhstan" cc="KZ" sponsor="Kcell" id="2804"  url2="http://pav-st-02.kcell.kz/speedtest/upload.php" />
<server url="http://speedtest1.angara.ru/speedtest/upload.php" lat="52.2845" lon="104.3075" name="Irkutsk" country="Russian Federation" cc="RU" sponsor="MTS" id="1894"  url2="http://speedtest2.angara.ru/speedtest/upload.php" />
<server url="http://speedtest.zero.net.uk/speedtest/upload.php" lat="52.2757" lon="-1.8955" name="Studley" country="Great Britain" cc="GB" sponsor="zero.net.uk Ltd" id="3110"  url2="http://speedtest.as49962.net/speedtest/upload.php" />
<server url="http://st.baikal-telecom.net/speedtest/upload.php" lat="52.2757" lon="104.3087" name="Irkutsk" country="Russian Federation" cc="RU" sponsor="Baikal-Telecom Ltd" id="3149"  url2="http://st2.baikal-telecom.net/speedtest/upload.php" />
<server url="http://speedtest.previder.net/speedtest/upload.php" lat="52.2667" lon="6.8000" name="Hengelo" country="Netherlands" cc="NL" sponsor="Previder bv" id="3428"  url2="http://speedtest.previder.nl/speedtest/upload.php" />
<server url="http://speedtest.skynet.net.pl/speedtest/upload.php" lat="52.2323" lon="21.0084" name="Warsaw" country="Poland" cc="PL" sponsor="Skynet DC" id="338"  url2="http://194.153.119.3/speedtest/upload.php" />
<server url="http://speedtest.sitbv.nl/speedtest/upload.php" lat="52.1833" lon="5.6167" name="Voorthuizen" country="Netherlands" cc="NL" sponsor="SIT Internetdiensten B.V." id="2641"  url2="http://speedtest.sitbv.net/speedtest/upload.php" />
<server url="http://speedtest.domtel.com.pl/speedtest/upload.php" lat="52.1500" lon="22.2667" name="Siedlce" country="Poland" cc="PL" sponsor="Domtel Telecom" id="2289"  url2="http://speedtest1.domtel.com.pl/speedtest/upload.php" />
<server url="http://www.speedtest.ittmedia.pl/speedtest/upload.php" lat="52.1500" lon="22.2667" name="Siedlce" country="Poland" cc="PL" sponsor="ITTMedia" id="2227"  url2="http://speedtest.ittmedia.pl/speedtest/upload.php" />
<server url="http://speedtest.yourlink.ca/speedtest/upload.php" lat="52.1333" lon="-106.6833" name="Saskatoon, SK" country="Canada" cc="CA" sponsor="Yourlink Inc" id="2533"  url2="http://207.204.192.69/speedtest/upload.php" />
<server url="http://speedtest1.mdcc.de/speedtest/upload.php" lat="52.1333" lon="11.6167" name="Magdeburg" country="Germany" cc="DE" sponsor="MDCC Magdeburg-City-Com GmbH" id="2643"  url2="http://speedtest2.mdcc.de/speedtest/upload.php" />
<server url="http://speedtest.vodafone.nl/speedtest/upload.aspx" lat="52.0910" lon="5.1220" name="Utrecht" country="Netherlands" cc="NL" sponsor="Vodafone NL" id="1671"  url2="http://speedtest2.vodafone.nl/speedtest/upload.aspx" />
<server url="http://speedtest.colocenter.nl/speedtest/upload.php" lat="52.0611" lon="4.4933" name="Zoetermeer" country="Netherland" cc="NL" sponsor="ColoCenter bv" id="3242"  url2="http://speedtest2.colocenter.nl/speedtest/upload.php" />
<server url="http://speedtest1.mks-chita.ru/speedtest/upload.php" lat="52.0500" lon="113.4667" name="Chita" country="Russian Federation" cc="RU" sponsor="MTS" id="1904"  url2="http://speedtest2.mks-chita.ru/speedtest/upload.php" />
<server url="http://spt1.ttk-chita.ru/speedtest/upload.php" lat="52.0500" lon="113.4667" name="Chita" country="Russian Federation" cc="RU" sponsor="TTK-CHITA" id="3497"  url2="http://spt2.ttk-chita.ru/speedtest/upload.php" />
<server url="http://speedtest-net-1.mk.speedtest.uk.net/speedtest/upload.php" lat="52.0360" lon="-0.7700" name="Milton Keynes" country="Great Britain" cc="GB" sponsor="Uno" id="1234"  url2="http://speedtest-net-2.mk.speedtest.uk.net/speedtest/upload.php" />
<server url="http://st-belokuriha.dianet.info/speedtest/upload.php" lat="52.0000" lon="84.9833" name="Belokurikha" country="Russian Federation" cc="RU" sponsor="Dianet" id="1534"  />
<server url="http://speedtest.caiw.net/speedtest/upload.php" lat="51.9931" lon="4.2050" name="Naaldwijk" country="Netherlands" cc="NL" sponsor="CAIW Diensten B.V." id="1183"  url2="http://speedtest1.caiw.net/speedtest/upload.php" />
<server url="http://vm-23.server.eu/speedtest/speedtest/upload.php" lat="51.9833" lon="5.9167" name="Arnhem" country="Netherlands" cc="NL" sponsor="Totaalnet" id="1608"  url2="http://77.95.248.15/speedtest/speedtest/upload.php" />
<server url="http://speedtest.breedbandarnhem.nl/speedtest/upload.php" lat="51.9798" lon="5.9256" name="Arnhem" country="Netherlands" cc="NL" sponsor="Breedband Arnhem" id="3034"  url2="http://speedtest2.breedbandarnhem.nl/speedtest/upload.php" />
<server url="http://speedtest.mirror.as24875.net/speedtest/upload.php" lat="51.9650" lon="6.2883" name="Doetinchem" country="Netherlands" cc="NL" sponsor="ISP Services" id="3564"  url2="http://speedtest.isp-services.nl/speedtest/upload.php" />
<server url="http://speedtest.gorno-altaisk.u-disk.ru/speedtest/upload.php" lat="51.9500" lon="85.9500" name="Gorno-altaisk" country="Russian Federation" cc="RU" sponsor="Rostelecom" id="3546"  url2="http://speedtest2.gorno-altaisk.u-disk.ru/speedtest/upload.php" />
<server url="http://speedtest.netdrive.pl/speedtest/upload.php" lat="51.9333" lon="15.5000" name="Zielona Gora" country="Poland" cc="PL" sponsor="Netdrive.pl Krzysztof Bojko" id="2369"  url2="http://speedtest1.netdrive.pl/speedtest/upload.php" />
<server url="http://speedtest.feromedia.pl/speedtest/upload.php" lat="51.9333" lon="22.3833" name="Lukow" country="Poland" cc="PL" sponsor="FERO" id="2109"  url2="http://speedtest2.feromedia.pl/speedtest/upload.php" />
<server url="http://test.luna.nl/speedtest/upload.php" lat="51.9217" lon="4.4811" name="Rotterdam" country="Netherlands" cc="NL" sponsor="Luna.nl B.V." id="2104"  />
<server url="http://mirror.i3d.net/speedtest/upload.php" lat="51.9217" lon="4.4811" name="Rotterdam" country="Netherlands" cc="NL" sponsor="INTERACTIVE 3D B.V." id="2438"  url2="http://213.163.76.200/speedtest/upload.php" />
<server url="http://speedtest.cix.ie/speedtest/upload.php" lat="51.8972" lon="-8.4700" name="Cork" country="Ireland" cc="IE" sponsor="Cork Internet eXchange" id="2432"  url2="http://91.103.0.13/speedtest/upload.php" />
<server url="http://speedtest.lausa.co.uk/speedtest/upload.php" lat="51.8700" lon="-2.2400" name="Gloucester" country="Great Britain" cc="GB" sponsor="LAUSA" id="2201"  url2="http://speedtest1.lausa.co.uk/speedtest/upload.php" />
<server url="http://speedtest-glouces.firstnetserv.co.uk/speedtest/upload.php" lat="51.8668" lon="-2.2439" name="Gloucester" country="Great Britain" cc="GB" sponsor="Black Fibre Networks Ltd" id="1722"  url2="http://speedtest-glouces2.firstnetserv.co.uk/speedtest/upload.php" />
<server url="http://speed1.wittenberg-net.de/speedtest/upload.php" lat="51.8667" lon="12.6500" name="Wittenberg" country="Germany" cc="DE" sponsor="Wittenberg-net GmbH" id="2002"  url2="http://speed2.wittenberg-net.de/speedtest/upload.php" />
